Unnamed: 0.1,Unnamed: 0,version,alive,tagId,success,timestamp,data__tagData__gyro__x,data__tagData__gyro__y,data__tagData__gyro__z,data__tagData__magnetic__x,data__tagData__magnetic__y,data__tagData__magnetic__z,data__tagData__quaternion__x,data__tagData__quaternion__y,data__tagData__quaternion__z,data__tagData__quaternion__w,data__tagData__linearAcceleration__x,data__tagData__linearAcceleration__y,data__tagData__linearAcceleration__z,data__tagData__pressure,data__tagData__maxLinearAcceleration,data__anchorData,data__acceleration__x,data__acceleration__y,data__acceleration__z,data__orientation__yaw,data__orientation__roll,data__orientation__pitch,data__metrics__latency,data__metrics__rates__update,data__metrics__rates__success,data__coordinates__x,data__coordinates__y,data__coordinates__z,reference__x,reference__y
0,0,1,True,26437,True,1609246779.293,-11.3125,-9.75,0.5,14.375,14.6875,-36.75,-0.00848388671875,-0.07989501953125,-0.42730712890625,-0.9005126953125,25,-21,-129,97072.75,1049,[],-34,20,996,5.394,-0.136,-0.083,75.6,16.17,16.17,4235,380,1000,3900.0,300.0
1,1,1,True,26437,True,1609246779.368,0.25,-21.8125,2.1875,13.1875,15.0,-38.25,-0.00946044921875,-0.07830810546875,-0.428466796875,-0.90008544921875,296,-81,-118,97072.75,1176,[],94,373,997,5.394,-0.133,-0.084,62.2,16.083,16.083,4268,299,1000,3917.391304347826,300.0
2,2,1,True,26437,True,1609246779.431,8.4375,6.75,-4.3125,14.6875,14.375,-39.0625,-0.0108642578125,-0.08123779296875,-0.42864990234375,-0.89971923828125,-223,-48,55,97072.75,1358,[],-358,39,1022,5.393,-0.136,-0.089,55.1,16.332,16.332,4235,344,1000,3934.782608695652,300.0
3,3,1,True,26437,True,1609246779.486,-26.0,-27.0,9.5,15.0625,12.5,-39.875,-0.0103759765625,-0.0780029296875,-0.42755126953125,-0.90057373046875,97,-76,59,97072.75,1148,[],-22,-85,716,5.396,-0.13,-0.086,83.7,16.179,16.179,4259,333,1000,3952.173913043478,300.0
4,4,1,True,26437,True,1609246779.565,-3.0625,9.4375,12.5,15.0625,14.375,-38.75,-0.01251220703125,-0.08148193359375,-0.42974853515625,-0.899169921875,-172,252,147,97076.5,1249,[],-305,343,1115,5.391,-0.133,-0.088,61.0,16.17,16.17,4299,407,1000,3969.565217391304,300.0
5,5,1,True,26437,True,1609246779.611,-8.5,-5.9375,2.875,13.5625,14.375,-40.375,-0.0107421875,-0.078857421875,-0.43231201171875,-0.898193359375,161,48,-221,97076.5,1205,[],31,134,746,5.385,-0.132,-0.088,83.4,16.323,16.323,4282,442,1000,3986.95652173913,300.0
6,6,1,True,26437,True,1609246779.686,-12.9375,-4.0625,8.8125,15.0625,13.5625,-41.1875,-0.01177978515625,-0.077880859375,-0.432861328125,-0.89801025390625,151,42,233,97076.5,1375,[],24,129,1202,5.384,-0.13,-0.088,76.1,15.922,15.922,4305,300,1000,4004.347826086957,300.0
7,7,1,True,26437,True,1609246779.757,32.625,13.5625,12.4375,14.375,13.5625,-41.1875,-0.0147705078125,-0.081298828125,-0.4342041015625,-0.89703369140625,-125,144,151,97076.5,1306,[],-256,239,1119,5.381,-0.133,-0.097,61.5,15.927,15.927,4328,348,1000,4021.739130434783,300.0
8,8,1,True,26437,True,1609246779.812,-0.625,-12.75,14.625,15.375,12.875,-41.5625,-0.0159912109375,-0.08148193359375,-0.4364013671875,-0.89593505859375,-43,54,-428,97076.5,1205,[],-172,152,538,5.376,-0.132,-0.1,83.5,15.801,15.801,4383,347,1000,4039.130434782608,300.0
9,9,1,True,26437,True,1609246779.884,5.0,-0.4375,-12.3125,16.1875,10.6875,-42.375,-0.014404296875,-0.07965087890625,-0.43701171875,-0.89581298828125,-87,73,-12,97076.5,1580,[],-242,2,1077,5.375,-0.13,-0.096,53.4,16.055,16.055,4371,409,1000,4056.521739130435,300.0
10,10,1,True,26437,True,1609246779.93,5.875,12.0,-14.4375,15.375,11.6875,-41.1875,-0.0126953125,-0.078125,-0.4364013671875,-0.896240234375,-111,29,-90,97074.75,1254,[],-238,118,877,5.377,-0.129,-0.092,96.0,15.874,15.874,4407,296,1000,4073.913043478261,300.0
11,11,1,True,26437,True,1609246780.011,21.6875,-8.25,9.5,15.375,11.0,-42.75,-0.01690673828125,-0.07952880859375,-0.43328857421875,-0.8975830078125,24,244,-138,97074.75,1481,[],-101,342,829,5.383,-0.128,-0.099,83.4,15.661,15.661,4377,376,1000,4091.304347826087,300.0
12,12,1,True,26437,True,1609246780.083,35.5625,32.125,-5.125,15.75,11.0,-44.375,-0.0167236328125,-0.08221435546875,-0.4364013671875,-0.89581298828125,-55,140,-475,97074.75,1357,[],5,154,1168,5.376,-0.133,-0.103,82.5,15.533,15.533,4419,312,1000,4108.695652173913,300.0
13,13,1,True,26437,True,1609246780.154,11.375,-11.3125,-1.0,14.375,10.25,-43.5625,-0.020263671875,-0.0797119140625,-0.435302734375,-0.89654541015625,-15,430,808,97074.75,1212,[],-138,533,1776,5.379,-0.125,-0.106,90.9,15.295,15.295,4444,394,1000,4126.086956521739,300.0
14,14,1,True,26437,True,1609246780.244,-2.4375,-0.75,-19.375,14.375,9.5,-42.75,-0.0179443359375,-0.0794677734375,-0.43304443359375,-0.897705078125,-84,-265,-39,97074.75,1859,[],-209,-166,928,5.383,-0.127,-0.101,61.8,15.29,15.29,4482,314,1000,4143.478260869565,300.0
15,15,1,True,26437,True,1609246780.298,4.5625,5.0,-7.375,15.375,7.6875,-43.5625,-0.017578125,-0.07891845703125,-0.4307861328125,-0.8988037109375,-77,-249,-276,97074.75,1263,[],-201,-151,691,5.389,-0.127,-0.1,69.2,15.501,15.501,4467,300,1000,4160.869565217391,300.0
16,16,1,True,26437,True,1609246780.362,10.75,9.125,10.8125,15.0625,9.5,-44.0625,-0.01837158203125,-0.07916259765625,-0.43157958984375,-0.8984375,-248,71,-180,97078.75,1160,[],-372,170,787,5.387,-0.127,-0.101,61.4,15.473,15.473,4465,337,1000,4178.260869565217,300.0
17,17,1,True,26437,True,1609246780.416,-36.25,-9.5,-1.0625,15.75,9.5,-43.1875,-0.0166015625,-0.07806396484375,-0.42889404296875,-0.89984130859375,49,-258,464,97078.75,1539,[],-74,-163,1432,5.393,-0.127,-0.097,73.7,15.616,15.616,4449,311,1000,4195.652173913044,300.0
18,18,1,True,26437,True,1609246780.472,3.3125,4.8125,-22.5,16.1875,8.375,-43.25,-0.01788330078125,-0.08013916015625,-0.424560546875,-0.90167236328125,-131,-119,-517,97078.75,1482,[],-257,-20,450,5.403,-0.129,-0.1,109.1,15.366,15.366,4460,314,1000,4213.04347826087,300.0
19,19,1,True,26437,True,1609246780.565,16.8125,-3.125,7.4375,16.1875,5.875,-43.1875,-0.0185546875,-0.0791015625,-0.42108154296875,-0.90338134765625,77,329,331,97078.75,1562,[],-47,427,1299,5.411,-0.128,-0.1,66.5,15.575,15.575,4489,368,1000,4230.434782608696,300.0
20,20,1,True,26437,True,1609246780.62,23.1875,3.1875,7.5,15.75,8.1875,-42.75,-0.01934814453125,-0.08001708984375,-0.41937255859375,-0.904052734375,-16,70,79,97078.75,1381,[],-142,170,1046,5.414,-0.129,-0.103,57.4,15.68,15.68,4513,353,1000,4247.826086956522,300.0
21,21,1,True,26437,True,1609246780.677,4.375,10.8125,-9.5,14.375,7.75,-43.1875,-0.01934814453125,-0.08251953125,-0.41864013671875,-0.9041748046875,-108,86,-39,97077.25,1465,[],-239,188,927,5.415,-0.133,-0.105,76.8,15.356,15.356,4499,392,1000,4265.217391304348,300.0
22,22,1,True,26437,True,1609246780.754,-2.375,0.3125,14.3125,15.75,6.6875,-44.375,-0.01947021484375,-0.081787109375,-0.41632080078125,-0.90533447265625,-203,40,-6,97077.25,1335,[],-332,141,960,5.42,-0.132,-0.104,55.1,15.499,15.499,4494,402,1000,4282.608695652174,300.0
23,23,1,True,26437,True,1609246780.802,-6.25,-10.75,1.375,15.0625,7.75,-42.75,-0.01934814453125,-0.0819091796875,-0.41552734375,-0.90570068359375,-187,207,134,97077.25,1454,[],-316,308,1101,5.423,-0.132,-0.104,94.7,15.469,15.469,4525,377,1000,4300.0,300.0
24,24,1,True,26437,True,1609246780.885,-10.5625,4.5625,11.3125,15.0625,7.0625,-42.375,-0.01763916015625,-0.0821533203125,-0.41851806640625,-0.904296875,-56,-59,91,97077.25,1186,[],-187,38,1058,5.416,-0.134,-0.101,46.0,15.504,15.504,4503,300,1000,4317.391304347826,300.0
25,25,1,True,26437,True,1609246780.931,-13.8125,-13.6875,3.5,16.875,6.25,-42.0,-0.01751708984375,-0.08221435546875,-0.4210205078125,-0.90313720703125,182,-315,123,97077.25,1287,[],50,-216,1090,5.411,-0.133,-0.101,86.9,15.323,15.323,4538,329,1000,4334.782608695652,300.0
26,26,1,True,26437,True,1609246781.008,12.25,3.3125,17.625,14.6875,6.0,-42.5,-0.01812744140625,-0.0830078125,-0.42364501953125,-0.90185546875,-17,350,-7,97077.25,1301,[],-149,451,959,5.404,-0.134,-0.104,66.5,15.44,15.44,4534,352,1000,4352.173913043478,300.0
27,27,1,True,26437,True,1609246781.075,-18.1875,6.1875,-7.375,16.1875,6.0,-43.375,-0.01629638671875,-0.08221435546875,-0.42242431640625,-0.90252685546875,-98,-288,-182,97077.5,1501,[],-230,-191,784,5.407,-0.134,-0.099,56.7,15.719,15.719,4595,401,1000,4369.565217391304,300.0
28,28,1,True,26437,True,1609246781.129,-7.3125,2.4375,-4.5,16.875,6.25,-42.5,-0.0157470703125,-0.08245849609375,-0.4244384765625,-0.90155029296875,-8,64,-43,97077.5,1190,[],-311,-113,888,5.403,-0.135,-0.099,76.3,15.526,15.526,4614,332,1000,4386.95652173913,300.0
29,29,1,True,26437,True,1609246781.188,7.0,-15.0,-6.25,15.375,6.6875,-42.0625,-0.01666259765625,-0.08099365234375,-0.4219970703125,-0.90283203125,68,81,-188,97077.5,1275,[],-60,177,779,5.408,-0.132,-0.099,90.9,15.43,15.43,4627,386,1000,4404.347826086957,300.0
30,30,1,True,26437,True,1609246781.275,27.25,36.0,33.8125,15.375,6.25,-42.875,-0.0184326171875,-0.082275390625,-0.41229248046875,-0.90716552734375,-257,303,113,97077.5,1223,[],-389,402,1080,5.429,-0.134,-0.101,79.0,15.284,15.284,4637,292,1000,4421.739130434782,300.0
31,31,1,True,26437,True,1609246781.346,32.0,15.0,15.3125,15.75,6.6875,-43.375,-0.0125732421875,-0.0797119140625,-0.4219970703125,-0.90301513671875,-536,388,-677,97077.5,1497,[],175,-222,454,5.408,-0.133,-0.091,82.9,15.015,15.015,4662,315,1000,4439.130434782608,300.0
32,32,1,True,26437,True,1609246781.422,-18.9375,-17.875,8.25,15.75,7.0625,-40.875,-0.01251220703125,-0.07891845703125,-0.4254150390625,-0.90142822265625,114,20,-16,97077.5,1398,[],-14,108,951,5.401,-0.132,-0.091,72.8,15.076,15.076,4661,323,1000,4456.521739130435,300.0
33,33,1,True,26437,True,1609246781.479,48.75,-3.5625,-4.25,15.75,7.5,-42.0625,-0.01397705078125,-0.07952880859375,-0.4239501953125,-0.902099609375,178,-72,-258,97079.25,1398,[],48,18,709,5.404,-0.132,-0.093,93.4,14.983,14.983,4698,255,1000,4473.913043478261,300.0
34,34,1,True,26437,True,1609246781.558,4.875,17.5,10.25,15.375,5.5625,-41.6875,-0.01495361328125,-0.0828857421875,-0.42694091796875,-0.90032958984375,180,182,59,97079.25,1649,[],-475,422,784,5.397,-0.136,-0.098,66.9,14.99,14.99,4707,301,1000,4491.304347826087,300.0
35,35,1,True,26437,True,1609246781.62,11.3125,-7.5,3.5,16.1875,6.25,-42.0625,-0.014892578125,-0.08154296875,-0.42852783203125,-0.89971923828125,231,300,18,97079.25,1275,[],-283,-82,755,5.394,-0.134,-0.097,62.5,15.254,15.254,4738,346,1000,4508.695652173913,300.0
36,36,1,True,26437,True,1609246781.683,-13.4375,2.5,-5.6875,15.75,5.1875,-42.5,-0.01416015625,-0.0816650390625,-0.4278564453125,-0.9000244140625,64,-266,66,97079.25,1306,[],-106,-128,1033,5.395,-0.135,-0.096,75.8,15.168,15.168,4773,327,1000,4526.086956521739,300.0
37,37,1,True,26437,True,1609246781.759,22.5625,-15.875,11.0625,17.25,7.0625,-42.0625,-0.01611328125,-0.08184814453125,-0.42919921875,-0.89935302734375,303,484,96,97079.25,1426,[],-107,8,555,5.392,-0.133,-0.099,61.4,15.037,15.037,4776,382,1000,4543.478260869565,300.0
38,38,1,True,26437,True,1609246781.813,10.6875,4.1875,1.875,16.5625,6.25,-40.875,-0.01446533203125,-0.08203125,-0.43096923828125,-0.89849853515625,-207,-191,-39,97079.25,1274,[],93,2,1100,5.388,-0.135,-0.097,75.6,15.217,15.217,4763,287,1000,4560.869565217391,300.0
39,39,1,True,26437,True,1609246781.888,20.1875,2.25,-2.625,16.5625,6.0,-42.0625,-0.0145263671875,-0.08172607421875,-0.432861328125,-0.89764404296875,-4,191,-60,97077.25,1164,[],-135,286,906,5.384,-0.134,-0.097,61.5,15.226,15.226,4812,359,1000,4578.260869565217,300.0
40,40,1,True,26437,True,1609246781.933,-22.5625,4.1875,-5.3125,16.875,6.6875,-41.6875,-0.0130615234375,-0.08154296875,-0.43450927734375,-0.8968505859375,-239,-274,-281,97077.25,1162,[],-81,81,1562,5.38,-0.135,-0.095,82.5,15.209,15.209,4798,293,1000,4595.652173913043,300.0
41,41,1,True,26437,True,1609246782.015,-11.125,-6.125,-12.9375,16.1875,6.0,-42.0625,-0.01556396484375,-0.08282470703125,-0.4317626953125,-0.89801025390625,129,-439,57,97077.25,1566,[],-233,419,804,5.387,-0.135,-0.1,80.4,15.053,15.053,4880,317,1000,4613.043478260869,300.0
42,42,1,True,26437,True,1609246782.09,-11.75,-8.625,3.25,16.5625,7.5,-40.875,-0.0155029296875,-0.0810546875,-0.42919921875,-0.8994140625,83,-277,102,97077.25,1198,[],-46,-182,1069,5.392,-0.132,-0.098,56.5,15.193,15.193,4818,357,1000,4630.434782608695,300.0
43,43,1,True,26437,True,1609246782.133,-14.3125,4.875,-0.4375,16.5625,7.0625,-41.25,-0.01416015625,-0.07989501953125,-0.42962646484375,-0.89935302734375,-112,148,-74,97077.25,1262,[],-213,333,914,5.391,-0.131,-0.095,69.5,15.138,15.138,4858,361,1000,4647.826086956522,300.0
44,44,1,True,26437,True,1609246782.202,0.125,-2.375,-3.5,15.75,7.5,-40.875,-0.013671875,-0.07965087890625,-0.43017578125,-0.89910888671875,229,281,-43,97076.0,1281,[],100,372,772,5.39,-0.131,-0.094,73.0,15.144,15.144,4890,338,1000,4665.217391304348,300.0
45,45,1,True,26437,True,1609246782.268,1.9375,-3.6875,5.4375,15.75,7.0625,-40.5,-0.0145263671875,-0.08123779296875,-0.43072509765625,-0.898681640625,206,15,-336,97076.0,1113,[],-144,-1,1397,5.389,-0.133,-0.097,87.9,15.177,15.177,4871,344,1000,4682.608695652173,300.0
46,46,1,True,26437,True,1609246782.351,13.3125,-3.8125,3.25,15.375,8.5,-42.5,-0.016357421875,-0.0819091796875,-0.43304443359375,-0.89752197265625,-33,-157,71,97076.0,1718,[],-161,162,825,5.383,-0.133,-0.1,78.6,14.842,14.842,4934,383,1000,4700.0,300.0
47,47,1,True,26437,True,1609246782.42,13.8125,12.875,-2.875,15.0625,8.875,-42.875,-0.01531982421875,-0.08099365234375,-0.4349365234375,-0.89666748046875,176,-207,203,97076.0,1235,[],47,-111,1171,5.38,-0.132,-0.098,48.3,15.131,15.131,4927,345,1000,4717.391304347826,300.0
48,48,1,True,26437,True,1609246782.469,2.5,-4.0,-10.5625,15.75,7.75,-42.0625,-0.0155029296875,-0.08203125,-0.44049072265625,-0.89385986328125,-208,-83,-186,97076.0,1177,[],-339,14,780,5.367,-0.133,-0.1,79.5,15.136,15.136,4942,344,1000,4734.782608695652,300.0
49,49,1,True,26437,True,1609246782.535,-11.8125,16.75,-3.0625,15.0625,9.5625,-42.5,-0.01422119140625,-0.079345703125,-0.4359130859375,-0.8963623046875,46,73,-71,97076.0,1812,[],-81,166,896,5.378,-0.13,-0.095,70.1,15.379,15.379,4950,308,1000,4752.173913043478,300.0
50,50,1,True,26437,True,1609246782.596,8.5625,13.1875,16.8125,14.375,7.0625,-44.5,-0.016845703125,-0.0831298828125,-0.4378662109375,-0.89501953125,-126,46,-57,97071.5,1339,[],-281,401,870,5.372,-0.134,-0.104,72.6,15.096,15.096,4929,366,1000,4769.565217391304,300.0
51,51,1,True,26437,True,1609246782.669,18.0,-4.625,7.0625,15.0625,7.75,-45.375,-0.017578125,-0.08306884765625,-0.43780517578125,-0.89508056640625,-120,-246,250,97071.5,1136,[],-251,-144,1217,5.372,-0.133,-0.105,66.6,15.232,15.232,4950,379,1000,4786.956521739131,300.0
52,52,1,True,26437,True,1609246782.729,-5.4375,0.0,1.8125,14.0,7.0625,-44.5,-0.01959228515625,-0.0816650390625,-0.432373046875,-0.89776611328125,-43,-47,38,97071.5,1448,[],-170,55,1005,5.385,-0.13,-0.107,62.0,15.312,15.312,5028,435,1000,4804.347826086956,300.0
53,53,1,True,26437,True,1609246782.791,-7.0,-2.3125,-12.9375,14.6875,7.5,-47.375,-0.02130126953125,-0.08404541015625,-0.431640625,-0.89788818359375,-88,-215,-329,97071.5,1480,[],-218,-106,636,5.387,-0.132,-0.111,57.2,15.573,15.573,4981,390,1000,4821.739130434782,300.0
54,54,1,True,26437,True,1609246782.835,21.1875,-0.8125,6.1875,15.0625,8.1875,-45.6875,-0.02044677734375,-0.08349609375,-0.42938232421875,-0.8990478515625,-23,-446,255,97071.5,1297,[],-120,283,979,5.391,-0.133,-0.115,84.5,15.657,15.657,4962,318,1000,4839.130434782609,300.0
55,55,1,True,26437,True,1609246782.91,-8.25,9.8125,22.3125,13.1875,7.0625,-46.5,-0.02203369140625,-0.08526611328125,-0.4288330078125,-0.89910888671875,-339,143,198,97071.5,1276,[],-471,253,1164,5.392,-0.132,-0.115,62.2,15.648,15.648,5031,356,1000,4856.521739130435,300.0
56,56,1,True,26437,True,1609246782.965,32.375,5.9375,10.5,14.0,6.6875,-47.25,-0.02264404296875,-0.08514404296875,-0.424560546875,-0.901123046875,31,406,-488,97071.5,1336,[],-194,405,931,5.402,-0.134,-0.119,61.2,15.78,15.78,5016,453,1000,4873.913043478261,300.0
57,57,1,True,26437,True,1609246783.014,-5.375,-18.6875,-7.5625,13.5625,6.6875,-46.5,-0.0208740234375,-0.08258056640625,-0.4249267578125,-0.90118408203125,204,-285,144,97073.25,1316,[],75,-180,1110,5.402,-0.131,-0.108,85.2,15.62,15.62,4995,398,1000,4891.304347826087,300.0
58,58,1,True,26437,True,1609246783.099,-8.0625,-15.3125,-16.6875,14.375,4.875,-46.875,-0.02447509765625,-0.08551025390625,-0.42193603515625,-0.9022216796875,301,108,-759,97073.25,1220,[],170,160,767,5.407,-0.133,-0.117,58.0,15.617,15.617,5078,441,1000,4908.695652173913,300.0
59,59,1,True,26437,True,1609246783.151,-5.5625,12.0,-17.875,13.1875,3.75,-46.5,-0.0201416015625,-0.085205078125,-0.42266845703125,-0.90203857421875,211,44,272,97073.25,1494,[],-595,-142,999,5.406,-0.136,-0.109,78.3,15.643,15.643,5064,433,1000,4926.086956521739,300.0
60,60,1,True,26437,True,1609246783.214,16.375,-9.625,11.6875,13.5625,5.1875,-46.1875,-0.021240234375,-0.0843505859375,-0.42340087890625,-0.9017333984375,-99,211,140,97073.25,1249,[],-233,322,1105,5.405,-0.134,-0.11,60.6,15.81,15.81,5090,379,1000,4943.478260869565,300.0
61,61,1,True,26437,True,1609246783.273,28.375,3.875,-5.5625,13.5625,4.0625,-47.375,-0.02264404296875,-0.08642578125,-0.4239501953125,-0.90130615234375,-54,115,-287,97073.25,1221,[],-189,227,677,5.403,-0.136,-0.115,94.3,15.524,15.524,5101,390,1000,4960.869565217391,300.0
62,62,1,True,26437,True,1609246783.365,11.8125,1.4375,-11.5625,14.0,3.75,-47.375,-0.02154541015625,-0.08697509765625,-0.42230224609375,-0.9019775390625,-51,90,-132,97078.25,1253,[],-187,200,832,5.407,-0.139,-0.113,87.0,15.163,15.163,5139,428,1000,4978.260869565217,300.0
63,63,1,True,26437,True,1609246783.437,2.8125,1.125,10.8125,12.0625,3.0,-46.1875,-0.02337646484375,-0.0872802734375,-0.42474365234375,-0.9007568359375,38,157,-462,97078.25,1356,[],-96,271,501,5.402,-0.137,-0.117,77.5,14.99,14.99,5138,434,1000,4995.652173913043,300.0
64,64,1,True,26437,True,1609246783.515,-15.75,0.375,-2.5,13.1875,1.5,-44.375,-0.0216064453125,-0.0863037109375,-0.4229736328125,-0.90179443359375,175,13,-72,97078.25,1219,[],40,123,892,5.405,-0.137,-0.112,68.4,15.382,15.382,5145,364,1000,5013.043478260869,300.0
65,65,1,True,26437,True,1609246783.579,-1.875,3.6875,3.5625,13.5625,1.5,-45.375,-0.02154541015625,-0.087890625,-0.42095947265625,-0.902587890625,-24,53,-295,97078.25,1277,[],-162,163,669,5.409,-0.141,-0.113,74.1,15.045,15.045,5184,441,1000,5030.434782608696,300.0
66,66,1,True,26437,True,1609246783.647,2.1875,-15.5,-10.1875,13.1875,1.875,-45.375,-0.02008056640625,-0.088134765625,-0.4208984375,-0.902587890625,-334,-81,83,97078.25,1470,[],-191,-260,632,5.412,-0.14,-0.111,75.3,15.095,15.095,5247,433,1000,5047.826086956522,300.0
67,67,1,True,26437,True,1609246783.706,-10.8125,1.25,10.9375,13.1875,3.375,-43.375,-0.0208740234375,-0.08782958984375,-0.4210205078125,-0.90252685546875,-33,-93,-70,97078.25,1360,[],-171,16,894,5.409,-0.141,-0.112,84.7,15.167,15.167,5222,465,1000,5065.217391304347,300.0
68,68,1,True,26437,True,1609246783.785,-24.75,8.375,34.6875,12.875,0.5,-42.875,-0.0201416015625,-0.08837890625,-0.4295654296875,-0.89849853515625,16,-289,-24,97078.5,1444,[],-122,-179,940,5.391,-0.142,-0.113,55.1,15.196,15.196,5219,378,1000,5082.608695652174,300.0
69,69,1,True,26437,True,1609246783.833,-26.125,0.4375,-3.5,13.1875,0.75,-42.0625,-0.01971435546875,-0.0888671875,-0.4403076171875,-0.8931884765625,-58,-241,-204,97078.5,1083,[],-197,-129,759,5.367,-0.142,-0.115,75.6,15.335,15.335,5245,501,1000,5100.0,300.0
70,70,1,True,26437,True,1609246783.902,7.9375,11.25,-2.9375,12.875,2.25,-42.5,-0.0230712890625,-0.08941650390625,-0.43804931640625,-0.8941650390625,45,27,-25,97078.5,1389,[],-91,145,938,5.371,-0.14,-0.12,71.1,15.142,15.142,5250,470,1000,5117.391304347826,300.0
71,71,1,True,26437,True,1609246783.967,-26.0625,-2.375,-17.6875,12.5,0.5,-42.0625,-0.0162353515625,-0.0814208984375,-0.43463134765625,-0.89678955078125,-49,-246,-26,97078.5,1233,[],-178,-148,940,5.38,-0.132,-0.1,60.9,15.266,15.266,5256,469,1000,5134.782608695652,300.0
72,72,1,True,26437,True,1609246784.026,18.9375,10.5,2.25,12.5,-0.6875,-41.6875,-0.01971435546875,-0.08929443359375,-0.43450927734375,-0.89599609375,-220,-108,-181,97078.5,1479,[],-360,2,782,5.38,-0.143,-0.113,67.4,15.315,15.315,5261,435,1000,5152.173913043478,300.0
73,73,1,True,26437,True,1609246784.093,-4.1875,6.9375,-23.5625,12.5,2.25,-40.875,-0.022705078125,-0.08319091796875,-0.4273681640625,-0.89996337890625,-102,260,-7,97078.5,1771,[],-230,370,958,5.396,-0.13,-0.112,66.6,15.524,15.524,5292,424,1000,5169.565217391305,300.0
74,74,1,True,26437,True,1609246784.155,-39.9375,-29.5,-15.625,12.5,2.25,-40.875,-0.01898193359375,-0.0802001953125,-0.42633056640625,-0.90081787109375,232,-470,543,97080.25,1415,[],106,-369,1510,5.399,-0.128,-0.104,43.1,15.598,15.598,5259,427,1000,5186.95652173913,300.0
75,75,1,True,26437,True,1609246784.198,25.375,20.6875,3.6875,12.5,3.0,-39.25,-0.02056884765625,-0.0836181640625,-0.426513671875,-0.900390625,-264,70,-516,97080.25,1558,[],-394,176,449,5.397,-0.133,-0.109,92.7,15.418,15.418,5264,388,1000,5204.347826086956,300.0
76,76,1,True,26437,True,1609246784.282,-17.125,-28.375,-3.75,12.5,2.5625,-38.5,-0.020263671875,-0.081787109375,-0.425537109375,-0.9010009765625,337,-203,555,97080.25,1328,[],210,-99,1521,5.401,-0.13,-0.107,70.6,15.405,15.405,5239,382,1000,5221.739130434783,300.0
77,77,1,True,26437,True,1609246784.346,-23.0625,-2.25,3.25,12.0625,2.5625,-39.25,-0.01995849609375,-0.0823974609375,-0.42791748046875,-0.89984130859375,-37,-97,226,97080.25,1628,[],-166,7,1193,5.395,-0.131,-0.107,56.6,15.658,15.658,5264,323,1000,5239.130434782608,300.0
78,78,1,True,26437,True,1609246784.395,-7.0625,5.5,2.25,12.0625,3.375,-40.0625,-0.0198974609375,-0.083251953125,-0.42999267578125,-0.89874267578125,-133,-57,-363,97080.25,1204,[],-263,47,602,5.39,-0.132,-0.108,80.3,15.465,15.465,5288,355,1000,5256.521739130435,300.0
79,79,1,True,26437,True,1609246784.465,-19.875,8.75,-5.3125,12.875,2.5625,-39.25,-0.02001953125,-0.08367919921875,-0.428955078125,-0.89923095703125,-136,169,130,97080.25,1387,[],-267,274,1097,5.392,-0.133,-0.108,69.5,15.513,15.513,5319,350,1000,5273.913043478261,300.0
80,80,1,True,26437,True,1609246784.527,15.5625,7.8125,-6.0,12.0625,3.0,-39.25,-0.01922607421875,-0.08306884765625,-0.42803955078125,-0.89971923828125,-150,-181,-262,97077.0,1469,[],-280,-78,704,5.394,-0.133,-0.106,73.8,15.747,15.747,5314,298,1000,5291.304347826086,300.0
81,81,1,True,26437,True,1609246784.59,-3.1875,0.8125,5.0,11.375,2.5625,-39.6875,-0.0186767578125,-0.08270263671875,-0.43011474609375,-0.89874267578125,0,-114,24,97077.0,1389,[],-57,117,1021,5.39,-0.132,-0.106,48.9,15.752,15.752,5378,413,1000,5308.695652173913,300.0
82,82,1,True,26437,True,1609246784.639,4.9375,-2.4375,1.8125,12.875,4.0625,-38.375,-0.01995849609375,-0.08306884765625,-0.429931640625,-0.8988037109375,107,177,82,97077.0,1153,[],-21,282,1049,5.391,-0.132,-0.108,80.2,15.788,15.788,5363,395,1000,5326.086956521739,300.0
83,83,1,True,26437,True,1609246784.7,19.8125,14.875,5.75,13.1875,3.375,-36.75,-0.01922607421875,-0.08233642578125,-0.43011474609375,-0.8988037109375,-31,287,67,97077.0,1313,[],-160,390,1034,5.39,-0.131,-0.106,94.7,15.579,15.579,5427,386,1000,5343.478260869565,300.0
84,84,1,True,26437,True,1609246784.777,-19.0625,15.8125,7.6875,12.0625,6.25,-36.75,-0.01947021484375,-0.08349609375,-0.42962646484375,-0.89892578125,-256,-153,-340,97077.0,1464,[],83,141,810,5.391,-0.133,-0.107,63.8,15.713,15.713,5411,367,1000,5360.869565217391,300.0
85,85,1,True,26437,True,1609246784.839,5.375,0.375,7.125,12.0625,6.25,-36.75,-0.0198974609375,-0.08209228515625,-0.42919921875,-0.89923095703125,-78,33,343,97077.0,1168,[],-206,137,1310,5.392,-0.131,-0.107,56.7,15.969,15.969,5433,303,1000,5378.260869565217,300.0
86,86,1,True,26437,True,1609246784.888,30.6875,15.1875,-3.8125,13.1875,5.5625,-38.0,-0.02117919921875,-0.08465576171875,-0.428466796875,-0.89935302734375,-232,-111,-650,97076.0,1658,[],-220,448,1582,5.393,-0.134,-0.111,79.0,16.031,16.031,5473,362,1000,5395.652173913043,300.0
87,87,1,True,26437,True,1609246784.956,3.9375,-11.0,3.125,11.6875,5.5625,-38.0,-0.01812744140625,-0.0828857421875,-0.42742919921875,-0.9000244140625,-102,-327,-234,97076.0,1658,[],140,238,1433,5.395,-0.132,-0.105,60.3,15.806,15.806,5473,408,1000,5413.043478260869,300.0
88,88,1,True,26437,True,1609246785.016,-10.6875,-3.8125,-5.8125,12.875,6.6875,-38.0,-0.01983642578125,-0.0828857421875,-0.4241943359375,-0.90155029296875,195,-200,-196,97076.0,1611,[],65,-96,770,5.403,-0.132,-0.107,78.2,15.847,15.847,5406,327,1000,5430.434782608696,300.0
89,89,1,True,26437,True,1609246785.077,6.375,-7.5,-44.0,13.5625,7.75,-38.375,-0.020263671875,-0.08294677734375,-0.41925048828125,-0.90386962890625,175,67,505,97076.0,1481,[],45,171,1471,5.414,-0.133,-0.107,78.9,15.844,15.844,5370,318,1000,5447.826086956521,300.0
90,90,1,True,26437,True,1609246785.14,-11.625,-6.5,-12.875,12.0625,6.25,-39.25,-0.01605224609375,-0.0809326171875,-0.418212890625,-0.90460205078125,-8,-162,302,97076.0,1481,[],-87,-171,1257,5.416,-0.133,-0.097,88.0,15.638,15.638,5376,302,1000,5465.217391304347,300.0
91,91,1,True,26437,True,1609246785.216,-20.875,-14.75,-16.625,12.875,8.875,-38.5,-0.017578125,-0.08154296875,-0.411376953125,-0.90765380859375,114,-123,142,97076.0,1278,[],-187,18,796,5.431,-0.133,-0.099,70.7,15.778,15.778,5436,358,1000,5482.608695652174,300.0
92,92,1,True,26437,True,1609246785.271,6.5,-1.8125,3.0,12.5,8.875,-39.375,-0.01458740234375,-0.08062744140625,-0.41168212890625,-0.90765380859375,82,340,436,97078.75,1238,[],-49,431,1404,5.431,-0.134,-0.094,79.3,15.695,15.695,5484,328,1000,5500.000000000001,300.0
93,93,1,True,26437,True,1609246785.34,-28.875,-5.125,-13.8125,12.5,8.875,-39.375,-0.0115966796875,-0.079345703125,-0.4111328125,-0.90802001953125,161,-498,75,97078.75,1469,[],-61,-273,1043,5.432,-0.134,-0.086,83.2,15.878,15.878,5444,309,1000,5517.391304347826,300.0
94,94,1,True,26437,True,1609246785.42,12.0,2.125,6.1875,12.5,7.75,-40.1875,-0.01483154296875,-0.0809326171875,-0.4088134765625,-0.908935546875,-71,-101,-281,97078.75,1868,[],-98,-129,1335,5.438,-0.135,-0.094,74.4,15.482,15.482,5473,328,1000,5534.782608695652,300.0
95,95,1,True,26437,True,1609246785.493,-8.875,7.3125,-0.6875,12.0625,8.5,-39.375,-0.0166015625,-0.0828857421875,-0.40972900390625,-0.90826416015625,70,-334,199,97078.75,1344,[],-63,-238,1166,5.436,-0.136,-0.098,47.3,15.552,15.552,5483,317,1000,5552.173913043477,300.0
96,96,1,True,26437,True,1609246785.541,10.5625,-0.75,10.4375,13.1875,8.1875,-39.375,-0.019775390625,-0.08526611328125,-0.41571044921875,-0.9052734375,-16,41,-178,97078.75,1191,[],-403,306,873,5.421,-0.137,-0.107,100.2,15.377,15.377,5477,263,1000,5569.565217391304,300.0
97,97,1,True,26437,True,1609246785.633,-14.5625,-10.0625,10.375,12.5,7.75,-38.0625,-0.020751953125,-0.08447265625,-0.42327880859375,-0.90185546875,-60,6,46,97077.75,1068,[],-192,112,1012,5.405,-0.134,-0.109,58.5,15.228,15.228,5541,356,1000,5586.956521739131,300.0
98,98,1,True,26437,True,1609246785.691,-12.6875,-6.3125,2.6875,12.875,8.1875,-39.375,-0.02069091796875,-0.08331298828125,-0.42340087890625,-0.90185546875,55,-84,261,97077.75,1036,[],-75,21,1227,5.405,-0.133,-0.108,65.3,15.437,15.437,5517,270,1000,5604.347826086957,300.0
99,99,1,True,26437,True,1609246785.75,28.25,9.875,10.75,12.875,6.6875,-39.375,-0.02288818359375,-0.08514404296875,-0.42529296875,-0.9007568359375,22,151,318,97077.75,1365,[],-109,263,1284,5.401,-0.134,-0.115,70.2,15.593,15.593,5510,48,1000,5621.739130434782,300.0
100,100,1,True,26437,True,1609246785.81,-1.5625,3.375,3.25,12.5,7.5,-39.0,-0.021240234375,-0.08367919921875,-0.42767333984375,-0.8997802734375,-7,-85,-315,97077.75,1496,[],-178,-112,1061,5.395,-0.132,-0.11,59.5,15.783,15.783,5569,361,1000,5639.130434782608,300.0
101,101,1,True,26437,True,1609246785.85,-24.9375,-13.875,2.625,12.875,7.75,-39.75,-0.0213623046875,-0.08380126953125,-0.43157958984375,-0.89788818359375,138,59,184,97077.75,1355,[],-211,476,1066,5.387,-0.132,-0.111,91.6,15.693,15.693,5614,415,1000,5656.521739130435,300.0
102,102,1,True,26437,True,1609246785.935,0.5625,-10.375,-1.3125,11.6875,7.75,-39.0,-0.01971435546875,-0.0823974609375,-0.4332275390625,-0.89727783203125,34,30,-345,97077.75,1271,[],-93,134,620,5.383,-0.131,-0.107,74.8,15.537,15.537,5655,387,1000,5673.913043478261,300.0
103,103,1,True,26437,True,1609246785.993,23.75,4.375,-7.9375,11.375,9.25,-39.75,-0.0198974609375,-0.08203125,-0.431884765625,-0.89794921875,87,67,220,97078.5,1121,[],-64,81,900,5.387,-0.13,-0.107,68.9,15.467,15.467,5662,343,1000,5691.304347826087,300.0
104,104,1,True,26437,True,1609246786.062,-17.5,-2.625,-12.1875,11.375,9.25,-40.0625,-0.01983642578125,-0.08294677734375,-0.432373046875,-0.89764404296875,-63,-220,-154,97078.5,1307,[],-192,-114,811,5.384,-0.132,-0.108,90.7,15.391,15.391,5663,429,1000,5708.695652173913,300.0
105,105,1,True,26437,True,1609246786.142,4.625,-1.4375,-1.0625,11.6875,9.875,-39.375,-0.0203857421875,-0.08294677734375,-0.43243408203125,-0.89764404296875,74,175,94,97078.5,1804,[],-225,78,1007,5.385,-0.131,-0.11,78.8,15.343,15.343,5916,761,1000,5726.086956521739,300.0
106,106,1,True,26437,True,1609246786.2,19.375,18.4375,3.125,11.6875,9.5,-40.1875,-0.02197265625,-0.08392333984375,-0.431640625,-0.89788818359375,-56,88,-548,97078.5,1452,[],-185,198,417,5.387,-0.132,-0.112,84.7,15.213,15.213,5635,293,1000,5743.478260869565,300.0
107,107,1,True,26437,True,1609246786.278,1.5,-6.625,37.1875,11.375,10.6875,-41.0,-0.02191162109375,-0.08319091796875,-0.43353271484375,-0.89703369140625,80,-109,192,97078.5,1313,[],-411,0,1158,5.382,-0.13,-0.112,83.3,15.157,15.157,5611,283,1000,5760.869565217392,300.0
108,108,1,True,26437,True,1609246786.343,38.375,1.75,-12.375,11.375,9.5,-39.375,-0.02099609375,-0.0838623046875,-0.445068359375,-0.89129638671875,-380,-313,202,97078.5,1308,[],-508,-203,912,5.356,-0.131,-0.112,101.5,14.928,14.928,5661,220,1000,5778.260869565217,300.0
109,109,1,True,26437,True,1609246786.44,14.8125,44.6875,-8.375,12.5,9.875,-39.375,-0.0267333984375,-0.087646484375,-0.43719482421875,-0.89471435546875,-572,69,-208,97077.25,1765,[],-703,191,755,5.373,-0.133,-0.125,65.7,14.804,14.804,5715,371,1000,5795.652173913043,300.0
110,110,1,True,26437,True,1609246786.499,27.5625,20.3125,0.25,9.875,10.6875,-41.375,-0.02410888671875,-0.08489990234375,-0.434814453125,-0.89617919921875,104,238,88,97077.25,1205,[],-24,352,1053,5.379,-0.131,-0.118,85.3,14.672,14.672,5651,341,1000,5813.04347826087,300.0
111,111,1,True,26437,True,1609246786.576,-20.4375,-19.1875,-14.125,9.5625,10.25,-42.1875,-0.0230712890625,-0.08197021484375,-0.43450927734375,-0.8966064453125,-193,52,-98,97077.25,1186,[],-317,163,867,5.38,-0.13,-0.117,71.1,14.859,14.859,5712,318,1000,5830.434782608695,300.0
112,112,1,True,26437,True,1609246786.638,5.8125,0.3125,-17.4375,11.0625,11.75,-42.0625,-0.021484375,-0.07568359375,-0.42303466796875,-0.9027099609375,443,210,-94,97077.25,1332,[],327,311,874,5.406,-0.118,-0.104,69.4,14.931,14.931,5737,295,1000,5847.826086956522,300.0
113,113,1,True,26437,True,1609246786.701,15.8125,2.375,-13.5625,8.75,12.5,-43.375,-0.02032470703125,-0.0760498046875,-0.4212646484375,-0.90350341796875,197,-242,413,97077.25,1360,[],-98,124,539,5.408,-0.121,-0.107,76.5,14.998,14.998,5754,307,1000,5865.217391304348,300.0
114,114,1,True,26437,True,1609246786.771,8.3125,30.5625,-8.5,9.875,14.6875,-43.5,-0.01873779296875,-0.07763671875,-0.42047119140625,-0.90374755859375,-32,-570,-18,97079.0,1390,[],-155,-473,950,5.406,-0.125,-0.1,72.9,14.833,14.833,5797,381,1000,5882.608695652173,300.0
115,115,1,True,26437,True,1609246786.844,9.75,6.3125,5.0625,11.1875,14.0,-45.0625,-0.02203369140625,-0.07867431640625,-0.42059326171875,-0.903564453125,105,-42,121,97079.0,1578,[],-215,140,889,5.411,-0.125,-0.106,83.3,14.722,14.722,5722,283,1000,5900.0,300.0
116,116,1,True,26437,True,1609246786.925,-20.0,2.0,-8.5,10.75,12.875,-45.5,-0.0203857421875,-0.0794677734375,-0.417236328125,-0.90509033203125,-248,-433,152,97079.0,1391,[],-372,-331,1120,5.419,-0.127,-0.107,73.9,14.602,14.602,5731,306,1000,5917.391304347826,300.0
117,117,1,True,26437,True,1609246786.985,-31.5625,14.0625,-13.1875,11.1875,13.1875,-47.5,-0.0198974609375,-0.0802001953125,-0.411865234375,-0.907470703125,-182,-318,-144,97079.0,1315,[],-308,-218,822,5.43,-0.129,-0.103,74.1,14.52,14.52,5777,287,1000,5934.782608695653,300.0
118,118,1,True,26437,True,1609246787.06,3.0,-13.1875,4.875,11.5,13.1875,-47.5,-0.021240234375,-0.07952880859375,-0.4100341796875,-0.9083251953125,60,-171,113,97079.0,1200,[],-19,295,1223,5.435,-0.127,-0.105,60.5,14.959,14.959,5764,271,1000,5952.173913043478,300.0
119,119,1,True,26437,True,1609246787.12,-28.25,5.9375,-10.375,10.375,12.875,-48.75,-0.01898193359375,-0.08013916015625,-0.406982421875,-0.90972900390625,29,74,-156,97079.0,1727,[],-98,172,811,5.441,-0.13,-0.1,53.0,14.9,14.9,5802,300,1000,5969.565217391304,300.0
120,120,1,True,26437,True,1609246787.173,-1.3125,-6.0625,-7.8125,11.1875,12.875,-48.375,-0.0196533203125,-0.08026123046875,-0.405517578125,-0.91033935546875,66,-256,-122,97079.0,1494,[],-60,-157,844,5.444,-0.13,-0.101,46.7,15.162,15.162,5838,327,1000,5986.956521739131,300.0
121,121,1,True,26437,True,1609246787.22,-4.625,2.0,0.0625,11.75,11.75,-49.5625,-0.0194091796875,-0.080322265625,-0.40545654296875,-0.910400390625,-93,-219,99,97079.0,1193,[],-221,-121,939,5.444,-0.13,-0.101,62.9,15.503,15.503,5868,323,1000,6004.347826086956,300.0
122,122,1,True,26437,True,1609246787.283,-15.125,0.5,-7.1875,12.0625,11.0,-50.375,-0.02056884765625,-0.081787109375,-0.40618896484375,-0.909912109375,-32,-109,100,97079.0,1230,[],-161,-8,1066,5.443,-0.132,-0.105,57.8,15.429,15.429,5873,344,1000,6021.739130434783,300.0
123,123,1,True,26437,True,1609246787.334,-10.375,-4.375,-7.1875,12.0625,12.875,-50.0,-0.02099609375,-0.081787109375,-0.40484619140625,-0.91046142578125,-81,117,-100,97079.0,1244,[],-210,219,865,5.445,-0.132,-0.105,76.4,15.464,15.464,5883,315,1000,6039.130434782609,300.0
124,124,1,True,26437,True,1609246787.401,4.25,11.1875,-1.5625,11.6875,11.375,-51.5,-0.02044677734375,-0.0826416015625,-0.4046630859375,-0.9105224609375,-139,-116,-287,97079.0,1325,[],-270,-14,679,5.447,-0.134,-0.105,64.4,15.689,15.689,5914,355,1000,6056.521739130434,300.0
125,125,1,True,26437,True,1609246787.466,-4.25,11.3125,3.0,11.375,11.375,-50.6875,-0.02130126953125,-0.083251953125,-0.40594482421875,-0.90985107421875,-20,-8,-139,97079.0,1191,[],-152,96,826,5.443,-0.134,-0.107,53.4,15.814,15.814,5953,307,1000,6073.913043478261,300.0
126,126,1,True,26437,True,1609246787.502,-1.75,9.3125,4.9375,11.6875,11.0,-51.875,-0.02032470703125,-0.083251953125,-0.40899658203125,-0.90850830078125,-191,-15,-126,97078.75,1492,[],-323,87,839,5.437,-0.134,-0.106,88.2,15.641,15.641,5952,266,1000,6091.304347826087,300.0
127,127,1,True,26437,True,1609246787.583,2.8125,17.5,14.3125,13.1875,9.875,-52.6875,-0.0179443359375,-0.08319091796875,-0.4178466796875,-0.904541015625,7,38,-51,97078.75,1450,[],-237,116,1138,5.417,-0.135,-0.103,76.5,15.572,15.556,5936,245,1000,6108.695652173913,300.0
128,128,1,True,26437,True,1609246787.646,1.4375,8.0625,13.0,13.1875,8.75,-52.375,-0.0169677734375,-0.08380126953125,-0.427734375,-0.89984130859375,231,206,-123,97078.75,1291,[],97,306,842,5.395,-0.136,-0.103,70.1,15.691,15.693,5958,213,1000,6126.086956521739,300.0
129,129,1,True,26437,True,1609246787.707,-2.625,-10.4375,24.1875,12.875,8.0625,-52.6875,-0.0186767578125,-0.08251953125,-0.42962646484375,-0.8990478515625,106,90,-135,97078.75,1318,[],-22,192,830,5.391,-0.132,-0.105,73.4,15.714,15.715,5990,286,1000,6143.478260869565,300.0
130,130,1,True,26437,True,1609246787.763,1.5625,6.0,29.9375,13.5625,8.375,-51.875,-0.01837158203125,-0.0836181640625,-0.435302734375,-0.89617919921875,-283,194,65,97078.75,1355,[],-415,297,1031,5.378,-0.134,-0.106,82.4,15.664,15.665,6004,264,1000,6160.869565217391,300.0
131,131,1,True,26437,True,1609246787.838,39.75,37.8125,-3.0,13.5625,7.6875,-53.1875,-0.0208740234375,-0.087646484375,-0.43304443359375,-0.8968505859375,247,173,-239,97078.75,1574,[],110,284,725,5.383,-0.139,-0.115,64.3,15.751,15.752,6389,135,1000,6178.260869565217,300.0
132,132,1,True,26437,True,1609246787.888,-10.0625,5.25,-3.0,13.5625,5.875,-52.375,-0.02001953125,-0.08203125,-0.43328857421875,-0.89739990234375,55,-409,415,97076.0,1579,[],-155,126,752,5.383,-0.131,-0.106,79.4,15.845,15.846,6199,467,1000,6195.652173913044,300.0
133,133,1,True,26437,True,1609246787.962,14.875,19.875,1.3125,14.0625,5.0625,-53.1875,-0.0208740234375,-0.0845947265625,-0.43218994140625,-0.8975830078125,85,-148,-156,97076.0,1104,[],-45,-40,808,5.385,-0.134,-0.111,65.9,15.946,15.947,6335,703,1000,6213.043478260869,300.0
134,134,1,True,26437,True,1609246788.019,9.0,-15.1875,5.1875,13.6875,5.0625,-53.1875,-0.02117919921875,-0.0830078125,-0.432373046875,-0.8975830078125,286,237,113,97076.0,1249,[],158,344,1079,5.384,-0.131,-0.11,58.8,15.747,15.748,6679,-324,1000,6230.434782608695,300.0
135,135,1,True,26437,True,1609246788.078,-18.1875,-40.25,7.4375,14.75,5.875,-53.1875,-0.021484375,-0.082275390625,-0.43243408203125,-0.89764404296875,-171,-98,80,97076.0,1312,[],-297,9,1047,5.384,-0.129,-0.11,74.1,16.144,16.145,6127,344,1000,6247.826086956522,300.0
136,136,1,True,26437,True,1609246788.137,28.25,20.125,8.0625,14.5,4.875,-52.6875,-0.02081298828125,-0.0843505859375,-0.4320068359375,-0.897705078125,-43,-133,-232,97076.0,1217,[],-174,-25,733,5.385,-0.133,-0.111,70.4,15.904,15.905,6158,344,1000,6265.217391304347,300.0
137,137,1,True,26437,True,1609246788.202,-19.5,-13.6875,-3.125,14.75,4.875,-53.5,-0.01910400390625,-0.08074951171875,-0.43133544921875,-0.89837646484375,174,-51,-111,97076.0,1493,[],48,50,855,5.388,-0.129,-0.105,60.3,16.022,16.022,6268,504,1000,6282.608695652174,300.0
138,138,1,True,26437,True,1609246788.25,-7.3125,-4.8125,1.0625,14.5,5.1875,-53.5,-0.01934814453125,-0.0811767578125,-0.43145751953125,-0.89825439453125,24,-61,-140,97076.0,1202,[],-102,41,826,5.387,-0.129,-0.106,78.4,16.132,16.133,6259,382,1000,6300.0,300.0
139,139,1,True,26437,True,1609246788.312,-20.0625,-4.25,12.5625,13.6875,3.75,-52.6875,-0.01947021484375,-0.0810546875,-0.43133544921875,-0.8983154296875,115,-55,95,97074.75,1203,[],-10,47,1062,5.388,-0.129,-0.106,51.8,16.273,16.274,6262,395,1000,6300.0,300.0
140,140,1,True,26437,True,1609246788.36,0.625,-7.4375,1.3125,13.0,5.1875,-53.5,-0.02044677734375,-0.08074951171875,-0.42706298828125,-0.900390625,0,-261,175,97074.75,1353,[],-126,-158,1143,5.397,-0.128,-0.107,86.7,16.109,16.11,6215,328,1000,6313.609495901078,300.0771768062254
141,141,1,True,26437,True,1609246788.446,-16.25,-21.6875,-24.6875,14.0625,2.5625,-53.1875,-0.0201416015625,-0.08099365234375,-0.421630859375,-0.90289306640625,318,18,359,97074.75,1217,[],191,121,1326,5.409,-0.129,-0.105,53.4,15.993,15.994,6260,383,1000,6327.217241239777,300.3086972978025
142,142,1,True,26437,True,1609246788.499,15.8125,28.625,-2.4375,12.5625,1.875,-54.0,-0.02374267578125,-0.0792236328125,-0.42645263671875,-0.90069580078125,-194,-78,-77,97074.75,1345,[],-314,30,889,5.399,-0.122,-0.111,63.4,15.979,15.98,6264,417,1000,6340.821485678886,300.6945316947111
143,143,1,True,26437,True,1609246788.563,-32.75,13.8125,15.25,14.5,3.0,-53.5,-0.0244140625,-0.0751953125,-0.4276123046875,-0.9005126953125,-139,55,221,97074.75,1193,[],-251,161,1189,5.396,-0.115,-0.109,97.3,15.727,15.728,6248,363,1000,6354.420479331513,301.2346303678405
144,144,1,True,26437,True,1609246788.653,6.3125,5.4375,9.5,13.6875,0.75,-53.1875,-0.0255126953125,-0.07501220703125,-0.4307861328125,-0.89898681640625,9,204,424,97079.0,1333,[],48,117,975,5.389,-0.112,-0.111,62.3,15.628,15.628,6273,408,1000,6368.012472986159,301.9289238453726
145,145,1,True,26437,True,1609246788.715,-18.1875,-9.0625,17.5,13.0,2.25,-52.375,-0.0257568359375,-0.0743408203125,-0.4359130859375,-0.89654541015625,189,9,42,97079.0,1282,[],81,118,1011,5.378,-0.11,-0.111,50.6,15.786,15.787,6223,421,1000,6381.595718331725,302.7773228217193
146,146,1,True,26437,True,1609246788.765,-5.125,14.6875,-7.4375,13.6875,0.75,-52.375,-0.02392578125,-0.07562255859375,-0.439697265625,-0.8946533203125,-264,-222,-194,97079.0,1290,[],-201,-183,911,5.369,-0.115,-0.11,88.4,15.612,15.612,6285,418,1000,6395.168468182387,303.779718169008
147,147,1,True,26437,True,1609246788.847,-0.75,2.25,4.6875,13.6875,1.1875,-51.0625,-0.0224609375,-0.07427978515625,-0.445556640625,-0.89190673828125,-76,-208,-598,97079.0,1502,[],-186,-104,370,5.356,-0.112,-0.107,88.8,15.422,15.422,6450,552,1000,6408.728976702335,304.9359809511195
148,148,1,True,26437,True,1609246788.916,-5.0,-8.5,-15.625,13.0,1.5625,-52.6875,-0.020263671875,-0.07342529296875,-0.4488525390625,-0.89031982421875,63,-10,-228,97079.0,1488,[],-155,74,1187,5.348,-0.112,-0.103,76.2,15.647,15.647,6466,611,1000,6422.27549963034,306.2459624402727
149,149,1,True,26437,True,1609246788.983,-4.3125,-21.5625,-48.8125,13.25,1.5625,-53.1875,-0.0211181640625,-0.072998046875,-0.43963623046875,-0.89495849609375,272,-281,129,97079.0,1232,[],162,-182,1098,5.369,-0.111,-0.103,65.3,15.382,15.382,6423,653,1000,6435.80629450411,307.7094941361552
150,150,1,True,26437,True,1609246789.048,26.5,-5.125,38.75,11.75,1.5625,-51.5,-0.018798828125,-0.07257080078125,-0.44476318359375,-0.89251708984375,116,-605,47,97078.5,1189,[],69,30,1230,5.352,-0.111,-0.098,50.3,15.612,15.612,6589,703,1000,6449.319620884421,309.3263877875966
151,151,1,True,26437,True,1609246789.098,9.1875,-2.3125,6.375,13.25,-0.25,-51.875,-0.0238037109375,-0.07733154296875,-0.464111328125,-0.882080078125,-21,190,22,97078.5,1347,[],-342,566,854,5.313,-0.115,-0.115,88.4,15.49,15.491,6592,745,1000,6462.813740578988,311.0964354167838
152,152,1,True,26437,True,1609246789.187,-2.6875,15.0,3.375,12.5625,0.0625,-51.0625,-0.02166748046875,-0.07666015625,-0.46923828125,-0.87945556640625,14,56,240,97078.5,1433,[],20,-13,679,5.303,-0.115,-0.11,85.5,15.032,15.033,6831,1386,1000,6476.286917866043,313.0194093460117
153,153,1,True,26437,True,1609246789.267,-14.875,-0.6875,10.8125,12.5625,0.5,-50.6875,-0.0184326171875,-0.07354736328125,-0.47100830078125,-0.87884521484375,240,-39,171,97078.5,1421,[],145,-84,1429,5.298,-0.111,-0.101,64.8,15.26,15.26,6604,769,1000,6489.737419717596,315.0950622269697
154,154,1,True,26437,True,1609246789.317,-9.5625,2.25,4.125,11.75,0.5,-50.6875,-0.01885986328125,-0.0765380859375,-0.47503662109375,-0.87628173828125,2,269,-102,97078.5,1438,[],-111,372,866,5.288,-0.117,-0.105,71.3,15.231,15.231,6559,679,1000,6503.163516022359,317.3231270725581
155,155,1,True,26437,True,1609246789.386,12.6875,4.625,-0.625,11.1875,0.75,-51.0625,-0.016357421875,-0.073974609375,-0.4765625,-0.8758544921875,-69,42,-402,97078.5,1384,[],-180,140,566,5.286,-0.113,-0.099,74.1,15.293,15.294,6618,612,1000,6516.563479808275,319.7033172912282
156,156,1,True,26437,True,1609246789.46,-1.6875,19.9375,-10.375,-4.25,15.1875,-24.6875,-0.01544189453125,-0.072265625,-0.47210693359375,-0.87841796875,-140,-174,289,97072.5,1198,[],266,114,899,5.296,-0.112,-0.096,57.2,15.263,15.264,6635,582,1000,6529.935587464661,322.2353267238481
157,157,1,True,26437,True,1609246789.513,-6.125,-15.125,5.8125,-5.75,14.0625,-24.375,-0.0162353515625,-0.07110595703125,-0.47222900390625,-0.87847900390625,95,-81,-319,97072.5,1296,[],-501,-219,519,5.296,-0.109,-0.096,81.6,15.158,15.158,6588,608,1000,6543.278118963919,324.9188296830822
158,158,1,True,26437,True,1609246789.587,-22.9375,-7.625,0.5,-5.0,13.0625,-25.0,-0.01611328125,-0.0716552734375,-0.4754638671875,-0.87664794921875,-24,-217,70,97072.5,1392,[],99,348,745,5.288,-0.11,-0.097,62.1,15.577,15.577,6606,573,1000,6556.589358082765,327.753480995284
159,159,1,True,26437,True,1609246789.642,10.25,4.0625,13.8125,-5.6875,13.5625,-25.75,-0.0174560546875,-0.0731201171875,-0.47943115234375,-0.87432861328125,-36,20,61,97072.5,1339,[],-144,119,1031,5.28,-0.111,-0.101,61.8,15.603,15.603,6549,592,1000,6569.867592622999,330.7389160448951
160,160,1,True,26437,True,1609246789.701,7.375,19.6875,-25.25,-4.875,13.0625,-25.25,-0.0185546875,-0.07147216796875,-0.4769287109375,-0.8758544921875,348,-76,-110,97072.5,1492,[],-626,-151,578,5.285,-0.107,-0.101,83.9,15.366,15.366,6591,540,1000,6583.111114631729,333.8747508213449
161,161,1,True,26437,True,1609246789.776,19.5625,23.6875,1.875,-4.5,14.0,-25.375,-0.0198974609375,-0.07537841796875,-0.477294921875,-0.875244140625,-164,300,221,97072.5,1111,[],-275,405,1189,5.284,-0.112,-0.107,97.1,15.35,15.35,6563,505,1000,6596.318220621067,337.1605819684454
162,162,1,True,26437,True,1609246789.854,5.3125,11.5,28.1875,-6.375,14.25,-25.6875,-0.0189208984375,-0.0738525390625,-0.4862060546875,-0.8704833984375,-226,110,-438,97074.5,1705,[],-316,482,1039,5.264,-0.11,-0.105,73.3,15.164,15.164,6583,502,1000,6609.48721178725,340.5959868362738
163,163,1,True,26437,True,1609246789.91,1.8125,-0.125,12.9375,-6.25,13.0625,-26.1875,-0.0174560546875,-0.0721435546875,-0.4921875,-0.8673095703125,146,-264,48,97074.5,1242,[],-187,105,863,5.25,-0.108,-0.101,96.8,15.09,15.09,6511,500,1000,6622.616394229143,344.1805235355367
164,164,1,True,26437,True,1609246789.997,1.1875,6.4375,-0.8125,-6.5625,13.6875,-26.875,-0.0179443359375,-0.07421875,-0.49884033203125,-0.86328125,-19,-153,-70,97074.5,1107,[],-127,-50,898,5.235,-0.11,-0.106,70.9,15.048,15.048,6348,203,1000,6635.704079166132,347.9137309944107
165,165,1,True,26437,True,1609246790.05,19.9375,9.375,-3.75,-6.25,11.0,-27.375,-0.01873779296875,-0.07513427734375,-0.50177001953125,-0.861572265625,-134,69,-14,97074.5,1228,[],-66,31,1155,5.228,-0.11,-0.108,76.2,15.138,15.138,6362,180,1000,6648.748583155344,351.7951290178483
166,166,1,True,26437,True,1609246790.126,-14.0625,7.625,-12.5,-6.0625,11.0,-28.0625,-0.01861572265625,-0.07147216796875,-0.50030517578125,-0.8626708984375,259,-35,175,97074.5,1278,[],-337,-172,847,5.232,-0.105,-0.104,81.6,14.894,14.894,6355,-129,1000,6661.748228308184,355.8242183493435
167,167,1,True,26437,True,1609246790.201,8.5,8.0,13.4375,-6.5,8.75,-28.0,-0.02008056640625,-0.07293701171875,-0.50439453125,-0.86016845703125,78,171,-48,97075.25,1344,[],-316,181,656,5.225,-0.107,-0.11,73.5,15.022,15.022,6430,202,1000,6674.701342506157,360.0004807351526
168,168,1,True,26437,True,1609246790.252,33.75,28.125,-2.4375,-7.375,9.25,-26.6875,-0.02081298828125,-0.074951171875,-0.5076904296875,-0.8580322265625,-118,326,-297,97075.25,1272,[],-654,588,748,5.211,-0.107,-0.109,76.6,14.873,14.873,6439,194,1000,6687.60625961596,364.3233789909538
169,169,1,True,26437,True,1609246790.328,9.5,-14.0625,-43.625,-6.5,8.0625,-28.375,-0.018798828125,-0.06854248046875,-0.48876953125,-0.8695068359375,404,-165,341,97075.25,1513,[],2,-58,454,5.261,-0.101,-0.103,66.3,14.989,14.989,6921,1093,1000,6700.461319703779,368.7923570709454
170,170,1,True,26437,True,1609246790.388,-25.25,2.5625,14.0,-6.75,7.0,-26.5625,-0.01123046875,-0.06817626953125,-0.5234375,-0.8492431640625,79,-7,52,97075.25,1348,[],-66,185,1002,5.179,-0.104,-0.094,97.9,14.796,14.796,6773,790,1000,6713.264869248813,373.4068401393688
171,171,1,True,26437,True,1609246790.483,-16.75,-4.75,26.75,-7.5,9.0625,-27.0625,-0.0068359375,-0.06524658203125,-0.53076171875,-0.844970703125,263,-23,715,97075.25,1222,[],162,55,1687,5.163,-0.105,-0.081,64.8,14.796,14.796,6649,476,1000,6726.015261355957,378.1662346444479
172,172,1,True,26437,True,1609246790.535,-8.4375,11.875,32.125,-7.0625,7.25,-26.25,-0.0086669921875,-0.0687255859375,-0.537109375,-0.84063720703125,106,265,15,97075.25,1695,[],-170,91,1035,5.15,-0.106,-0.088,52.1,15.271,15.271,6537,259,1000,6738.710855967643,383.0699283947367
173,173,1,True,26437,True,1609246790.571,7.125,10.375,55.125,-7.5,6.1875,-27.5625,-0.0067138671875,-0.0711669921875,-0.5462646484375,-0.83453369140625,17,-171,2,97077.75,1201,[],-91,-84,973,5.124,-0.111,-0.089,81.5,15.253,15.253,6547,298,1000,6751.350020074796,388.1172906378651
174,174,1,True,26437,True,1609246790.653,-9.75,4.375,37.625,-5.6875,4.6875,-25.75,-0.009033203125,-0.07403564453125,-0.55596923828125,-0.82781982421875,-297,68,279,97077.75,2166,[],-408,163,1248,5.1,-0.112,-0.097,61.4,15.174,15.174,6616,300,1000,6763.931127926882,393.3076721416696
175,175,1,True,26437,True,1609246790.71,-9.125,22.5,-6.375,-5.75,4.375,-24.75,-0.0093994140625,-0.075927734375,-0.56207275390625,-0.82354736328125,-160,-319,163,97077.75,1323,[],-272,-220,1132,5.084,-0.115,-0.101,56.0,15.549,15.549,6637,342,1000,6776.452561241033,398.6404052777044
176,176,1,True,26437,True,1609246790.751,-18.9375,15.25,30.25,-6.0625,3.0,-26.75,-0.00872802734375,-0.0751953125,-0.569091796875,-0.81878662109375,150,373,230,97077.75,1645,[],-191,13,1061,5.068,-0.113,-0.1,89.8,15.703,15.703,6624,383,1000,6788.912709410193,404.1148041071165
177,177,1,True,26437,True,1609246790.833,-17.3125,3.6875,-2.3125,-5.1875,3.1875,-27.375,-0.00946044921875,-0.076904296875,-0.5740966796875,-0.81512451171875,-246,-430,-361,97077.75,1290,[],-358,-329,607,5.055,-0.115,-0.104,64.3,15.523,15.523,6649,383,1000,6801.309969710294,409.7301644688764
178,178,1,True,26437,True,1609246790.897,-3.875,-2.375,18.6875,-5.375,0.0625,-26.375,-0.01043701171875,-0.07745361328125,-0.58233642578125,-0.80914306640625,-32,115,-214,97077.75,1535,[],-143,220,754,5.035,-0.112,-0.107,70.4,15.428,15.428,6618,310,1000,6813.64274750641,415.4857640703532
179,179,1,True,26437,True,1609246790.967,-26.5,-15.25,9.75,-5.875,0.5625,-26.375,-0.00872802734375,-0.07611083984375,-0.5859375,-0.80670166015625,-124,-490,180,97083.5,1585,[],-234,-388,1149,5.027,-0.112,-0.104,67.6,15.259,15.259,6669,305,1000,6825.909456457871,421.3808625802216
180,180,1,True,26437,True,1609246791.027,8.1875,12.8125,1.25,-5.6875,1.6875,-26.6875,-0.0087890625,-0.07696533203125,-0.588134765625,-0.8050537109375,23,-117,288,97083.5,1455,[],-87,-14,1257,5.021,-0.113,-0.105,69.5,15.198,15.198,6715,424,1000,6838.108518722309,427.4147017236895
181,181,1,True,26437,True,1609246791.097,-4.9375,-14.625,4.0625,-6.5,1.875,-27.5,-0.00897216796875,-0.074951171875,-0.589111328125,-0.80450439453125,66,37,-176,97083.5,1260,[],-41,138,792,5.019,-0.11,-0.103,82.5,15.247,15.247,6706,433,1000,6850.238365158618,433.5865053800327
182,182,1,True,26437,True,1609246791.174,29.25,18.375,-8.75,-8.5,0.0625,-28.75,-0.008544921875,-0.07476806640625,-0.59136962890625,-0.8028564453125,-48,-32,132,97083.5,1173,[],-155,67,1102,5.013,-0.11,-0.103,57.9,15.2,15.2,6699,387,1000,6862.297435528784,439.8954796824265
183,183,1,True,26437,True,1609246791.231,10.125,2.25,5.9375,-7.25,-1.5625,-29.25,-0.0081787109375,-0.0723876953125,-0.5919189453125,-0.80267333984375,-136,-139,358,97083.5,1242,[],-241,-42,1328,5.011,-0.106,-0.099,52.1,15.365,15.365,6701,399,1000,6874.284178698579,446.3408131200591
184,184,1,True,26437,True,1609246791.283,-10.6875,0.5625,-12.875,-8.5,-1.0,-29.5,-0.008056640625,-0.0738525390625,-0.5938720703125,-0.80108642578125,55,-205,166,97083.5,1440,[],-51,-107,1135,5.007,-0.108,-0.1,68.7,15.435,15.435,6696,427,1000,6886.197052837078,452.9216766425142
185,185,1,True,26437,True,1609246791.352,-23.1875,-9.0625,-0.375,-8.1875,-0.5,-30.0,-0.00799560546875,-0.07330322265625,-0.59234619140625,-0.80230712890625,-39,-383,165,97082.25,1189,[],-145,-285,1135,5.011,-0.108,-0.1,54.7,15.733,15.733,6733,414,1000,6898.034525614982,459.6372237664101
186,186,1,True,26437,True,1609246791.389,3.8125,8.5,-2.4375,-8.6875,-2.5,-32.0,-0.00732421875,-0.0736083984375,-0.59674072265625,-0.79901123046875,-103,-145,-386,97082.25,1204,[],-210,-47,583,4.999,-0.109,-0.099,90.2,15.642,15.642,6710,264,1000,6909.795074401722,466.4865906842819
187,187,1,True,26437,True,1609246791.475,-22.6875,-0.75,5.3125,-8.75,-1.875,-31.5,-0.0042724609375,-0.0709228515625,-0.59832763671875,-0.798095703125,-19,-174,-211,97082.25,1597,[],-125,-84,759,4.996,-0.108,-0.092,80.1,15.671,15.671,6763,449,1000,6921.477186461302,473.4688963756903
188,188,1,True,26437,True,1609246791.549,10.4375,7.0625,13.75,-9.375,-1.875,-32.6875,-0.004638671875,-0.07220458984375,-0.60504150390625,-0.79290771484375,47,-97,427,97082.25,1398,[],-214,55,635,4.979,-0.108,-0.095,71.4,15.365,15.365,6794,463,1000,6933.079359146895,480.5832427205465
189,189,1,True,26437,True,1609246791.604,-6.3125,11.625,8.75,-9.375,-2.5625,-34.6875,-0.00494384765625,-0.073486328125,-0.60723876953125,-0.79107666015625,-251,-24,-407,97082.25,1216,[],-359,70,562,4.973,-0.11,-0.097,66.3,15.61,15.61,6833,511,1000,6944.600100094111,487.8287146146353
190,190,1,True,26437,True,1609246791.654,-8.4375,-16.25,20.125,-9.75,-3.6875,-34.1875,-0.00653076171875,-0.07342529296875,-0.6082763671875,-0.790283203125,90,191,463,97082.25,1536,[],-15,289,1433,4.971,-0.108,-0.1,100.0,15.326,15.326,6803,453,1000,6956.037927412965,495.2043800873225
191,191,1,True,26437,True,1609246791.736,27.875,6.1875,-77.3125,-10.6875,-5.5625,-34.875,-0.00665283203125,-0.07470703125,-0.60174560546875,-0.795166015625,-103,95,-400,97079.25,1461,[],111,-260,1007,4.987,-0.11,-0.1,75.6,15.246,15.246,6833,422,1000,6967.391369878484,502.7092904214331
192,192,1,True,26437,True,1609246791.807,-1.5625,10.4375,65.0,-9.6875,-5.5625,-34.375,-0.00634765625,-0.0738525390625,-0.60845947265625,-0.79010009765625,41,-105,6,97079.25,1300,[],-65,-7,975,4.97,-0.109,-0.1,67.6,15.53,15.53,6879,395,1000,6978.658967119954,510.3424802752834
193,193,1,True,26437,True,1609246791.854,-9.75,7.25,75.1875,-10.0625,-5.75,-34.1875,-0.0040283203125,-0.0723876953125,-0.63433837890625,-0.7696533203125,-42,71,211,97079.25,1168,[],-146,168,1182,4.904,-0.106,-0.098,82.7,15.357,15.357,6868,370,1000,6989.839269808759,518.1029678068486
194,194,1,True,26437,True,1609246791.93,22.1875,-1.875,-57.625,-10.25,-5.25,-33.5625,-0.00238037109375,-0.0723876953125,-0.6416015625,-0.76361083984375,44,213,11,97079.25,1202,[],-60,307,981,4.885,-0.107,-0.097,78.0,15.402,15.402,6877,423,1000,7000.93083984481,525.9897548000588
195,195,1,True,26437,True,1609246792.008,29.25,27.3125,10.4375,-8.5,-8.75,-34.5625,-0.0040283203125,-0.0738525390625,-0.637451171875,-0.76690673828125,-194,88,-355,97079.25,1195,[],-300,186,614,4.896,-0.108,-0.1,49.2,15.4,15.4,6851,387,1000,7011.93225054152,534.0018267931944
196,196,1,True,26437,True,1609246792.057,-6.6875,-8.125,-1.875,-8.5625,-7.875,-33.875,-0.00238037109375,-0.07061767578125,-0.64508056640625,-0.7608642578125,136,66,196,97079.25,1455,[],33,158,1167,4.876,-0.104,-0.095,60.1,15.789,15.789,6882,338,1000,7022.842086809322,542.1381532093761
197,197,1,True,26437,True,1609246792.097,-6.5625,6.5,25.3125,-8.1875,-9.5,-34.0625,-0.00299072265625,-0.07379150390625,-0.65185546875,-0.7532958984375,-24,105,-68,97082.0,1355,[],-75,110,872,4.853,-0.107,-0.101,78.3,15.884,15.884,6892,441,1000,7033.658945337681,550.3976874891251
198,198,1,True,26437,True,1609246792.175,-1.4375,7.8125,26.75,-8.1875,-8.25,-32.375,-0.001953125,-0.07232666015625,-0.6624755859375,-0.74560546875,-204,-19,-370,97082.0,1140,[],-308,77,600,4.83,-0.105,-0.099,60.6,15.87,15.87,6937,469,1000,7044.381434775607,558.7793672249805
199,199,1,True,26437,True,1609246792.233,-15.9375,-13.0625,18.25,-7.875,-9.375,-31.1875,-0.00360107421875,-0.07135009765625,-0.6693115234375,-0.739501953125,23,61,280,97082.0,1293,[],-75,160,1250,4.812,-0.1,-0.101,52.8,15.799,15.799,6891,374,1000,7055.008175910617,567.2821142981543
200,200,1,True,26437,True,1609246792.286,16.0625,11.125,5.875,-7.6875,-9.5625,-31.0625,-0.00250244140625,-0.07305908203125,-0.67572021484375,-0.7335205078125,-189,-1,131,97082.0,1262,[],-291,99,1101,4.794,-0.104,-0.103,63.6,16.068,16.068,6886,301,1000,7065.537801846144,575.9048350172077
201,201,1,True,26437,True,1609246792.333,-0.1875,9.0625,16.6875,-7.1875,-9.0625,-31.5,-0.002197265625,-0.07342529296875,-0.6817626953125,-0.7279052734375,-376,-133,-394,97082.0,1355,[],-478,-32,575,4.777,-0.104,-0.104,72.1,16.024,16.024,6894,340,1000,7075.968958177351,584.6464202587304
202,202,1,True,26437,True,1609246792.398,-17.6875,-1.4375,23.5,-7.875,-9.0625,-30.5625,-0.001953125,-0.071044921875,-0.6856689453125,-0.72442626953125,-233,-226,389,97082.0,1086,[],-345,11,751,4.767,-0.1,-0.1,75.0,16.104,16.104,6864,297,1000,7086.300303165354,593.5057456100055
203,203,1,True,26437,True,1609246792.471,4.125,1.125,3.0625,-6.5,-8.25,-29.6875,-0.0029296875,-0.0726318359375,-0.6905517578125,-0.7196044921875,184,-234,164,97081.0,1246,[],85,-132,1134,4.753,-0.1,-0.105,68.5,16.066,16.066,6871,287,1000,7096.530507909804,602.4816715136396
204,204,1,True,26437,True,1609246792.536,-2.6875,17.0,4.625,-7.875,-9.25,-28.25,-0.001708984375,-0.0731201171875,-0.69329833984375,-0.7169189453125,-57,87,329,97081.0,1356,[],173,54,1021,4.745,-0.103,-0.104,62.0,15.813,15.813,6905,361,1000,7106.658256519817,611.5730434141428
205,205,1,True,26437,True,1609246792.598,16.375,-1.0625,9.125,-6.1875,-8.5625,-28.25,-0.002685546875,-0.07293701171875,-0.69561767578125,-0.71466064453125,-87,213,-605,97081.0,1380,[],-185,316,364,4.739,-0.1,-0.106,68.3,15.734,15.734,6862,244,1000,7116.682246283242,620.778691906436
206,206,1,True,26437,True,1609246792.666,-10.25,-20.125,8.5625,-6.875,-7.75,-27.375,-0.0020751953125,-0.07232666015625,-0.69879150390625,-0.711669921875,10,-380,-91,97081.0,1523,[],3,230,1134,4.73,-0.099,-0.105,79.2,15.735,15.735,6893,294,1000,7126.601187834219,630.0974328862686
207,207,1,True,26437,True,1609246792.73,-6.5625,-8.625,73.6875,-6.5,-7.5,-27.75,-0.000244140625,-0.0703125,-0.71014404296875,-0.70050048828125,8,-81,132,97081.0,1164,[],-235,-168,962,4.698,-0.098,-0.1,62.1,15.757,15.757,6903,218,1000,7136.413805319028,639.5280677025298
208,208,1,True,26437,True,1609246792.792,11.0625,-16.1875,-17.75,-5.25,-7.875,-28.25,0.0,-0.07135009765625,-0.71533203125,-0.69512939453125,370,168,373,97081.0,1228,[],-311,62,612,4.683,-0.099,-0.103,68.8,16.007,16.007,7039,610,1000,7146.11883656021,649.0693833114265
209,209,1,True,26437,True,1609246792.86,24.0,9.25,-6.8125,-5.5,-5.5625,-28.375,0.00164794921875,-0.0706787109375,-0.720703125,-0.68963623046875,-5,280,-60,97083.0,1397,[],-103,377,910,4.668,-0.099,-0.099,60.3,15.779,15.779,6929,480,1000,7155.715033218904,658.7201524325155
210,210,1,True,26437,True,1609246792.92,-0.9375,4.1875,-1.9375,-5.75,-4.0,-25.875,0.0040283203125,-0.06365966796875,-0.71978759765625,-0.6912841796875,-55,-182,59,97083.0,1175,[],-122,-106,823,4.671,-0.094,-0.086,52.7,16.151,16.151,6973,494,1000,7165.201160955427,668.4791337065662
211,211,1,True,26437,True,1609246792.972,0.5625,-18.8125,-42.3125,-7.0,-4.5625,-25.5625,0.0009765625,-0.06890869140625,-0.71563720703125,-0.695068359375,392,16,175,97083.0,1202,[],-462,390,716,4.683,-0.097,-0.097,46.9,16.213,16.213,6984,406,1000,7174.575999588041,678.3450718552342
212,212,1,True,26437,True,1609246793.019,-41.25,-15.75,15.9375,-6.25,-4.0,-26.75,0.00067138671875,-0.0640869140625,-0.71051025390625,-0.7008056640625,0,-202,73,97083.0,1477,[],-127,-126,1047,4.698,-0.091,-0.091,74.8,16.129,16.129,6996,456,1000,7183.838343249906,688.316697842525
213,213,1,True,26437,True,1609246793.083,-2.875,-1.875,15.5,-4.875,-4.25,-26.5,-0.00146484375,-0.0667724609375,-0.7032470703125,-0.707763671875,129,-86,131,97083.0,1213,[],-88,33,941,4.718,-0.092,-0.096,76.4,16.105,16.105,7073,504,1000,7192.987000544184,698.392729038027
214,214,1,True,26437,True,1609246793.145,-5.4375,16.625,24.1875,-5.375,-3.1875,-24.75,0.00018310546875,-0.0677490234375,-0.71490478515625,-0.6959228515625,-192,209,27,97083.0,1192,[],-285,304,999,4.685,-0.094,-0.097,71.7,16.204,16.204,7050,544,1000,7202.020794697291,708.5718693818957
215,215,1,True,26437,True,1609246793.201,14.375,-8.0625,19.125,-6.0625,-2.75,-25.875,-0.000244140625,-0.067626953125,-0.7164306640625,-0.69439697265625,353,256,-101,97077.75,1455,[],-372,130,864,4.681,-0.093,-0.097,74.6,16.289,16.289,7057,527,1000,7210.93856371026,718.8528095515609
216,216,1,True,26437,True,1609246793.274,-14.5,-1.6875,19.4375,-4.6875,-1.6875,-25.5,0.0015869140625,-0.066650390625,-0.720458984375,-0.6903076171875,185,-28,-110,97077.75,1126,[],-229,132,1036,4.669,-0.094,-0.094,53.7,16.186,16.186,7097,647,1000,7219.739160508203,729.2342271301441
217,217,1,True,26437,True,1609246793.327,-3.5,-1.75,-33.1875,-4.75,-3.75,-25.0,0.00347900390625,-0.06597900390625,-0.72052001953125,-0.6903076171875,8,-96,0,97077.75,1124,[],-288,158,744,4.669,-0.096,-0.091,75.0,16.169,16.169,7120,556,1000,7228.421453087865,739.714786776557
