Unnamed: 0.1,Unnamed: 0,version,alive,tagId,success,timestamp,data__tagData__gyro__x,data__tagData__gyro__y,data__tagData__gyro__z,data__tagData__magnetic__x,data__tagData__magnetic__y,data__tagData__magnetic__z,data__tagData__quaternion__x,data__tagData__quaternion__y,data__tagData__quaternion__z,data__tagData__quaternion__w,data__tagData__linearAcceleration__x,data__tagData__linearAcceleration__y,data__tagData__linearAcceleration__z,data__tagData__pressure,data__tagData__maxLinearAcceleration,data__anchorData,data__acceleration__x,data__acceleration__y,data__acceleration__z,data__orientation__yaw,data__orientation__roll,data__orientation__pitch,data__metrics__latency,data__metrics__rates__update,data__metrics__rates__success,data__coordinates__x,data__coordinates__y,data__coordinates__z,reference__x,reference__y,errorCode
0,0,1,True,26437,True,1609322224.737,-12.4375,-1.4375,9.6875,12.75,10.6875,-41.5,-0.00213623046875,-0.0465087890625,-0.34130859375,-0.93878173828125,50,-131,-115,0,0,[],-32,93,552,5.585,-0.085,-0.035,34.9,29.037,29.037,3933,666,1000,3900.0,300.0,
1,1,1,True,26437,True,1609322224.77,-8.5,-1.625,1.5,13.875,10.6875,-41.0625,-0.00177001953125,-0.046630859375,-0.34228515625,-0.93841552734375,80,98,-243,0,0,[],-4,133,1244,5.583,-0.086,-0.035,35.0,29.081,29.081,3914,645,1000,3909.160305343511,300.0,
2,2,1,True,26437,True,1609322224.803,8.375,-0.375,3.0,13.875,11.0625,-41.875,-0.00262451171875,-0.04681396484375,-0.34246826171875,-0.9383544921875,59,174,-94,0,0,[],-24,210,882,5.583,-0.085,-0.037,36.1,29.119,29.119,3896,660,1000,3918.320610687023,300.0,
3,3,1,True,26437,True,1609322224.836,1.5625,1.3125,4.8125,13.875,11.0625,-41.875,-0.00244140625,-0.04705810546875,-0.34368896484375,-0.9378662109375,-124,108,-24,0,0,[],-67,218,1066,5.58,-0.086,-0.036,37.3,29.114,29.114,3906,623,1000,3927.480916030534,300.0,
4,4,1,True,26437,True,1609322224.87,-3.625,2.5625,-7.25,13.0625,9.875,-42.25,-0.00244140625,-0.04742431640625,-0.3433837890625,-0.93798828125,33,-165,-149,0,0,[],-51,383,1085,5.581,-0.087,-0.037,36.5,29.15,29.15,3950,612,1000,3936.641221374046,300.0,
5,5,1,True,26437,True,1609322224.903,5.875,1.0,-2.75,13.5,10.25,-42.6875,-0.00341796875,-0.0477294921875,-0.3421630859375,-0.93841552734375,72,-46,19,0,0,[],-13,-8,995,5.583,-0.087,-0.038,35.8,29.188,29.188,3926,577,1000,3945.801526717557,300.0,
6,6,1,True,26437,True,1609322224.936,5.75,0.875,-1.5625,13.5,10.25,-42.6875,-0.0042724609375,-0.0477294921875,-0.34228515625,-0.9383544921875,-7,272,125,0,0,[],-92,312,1101,5.583,-0.086,-0.04,44.9,29.06,29.06,4027,578,1000,3954.961832061069,300.0,
7,7,1,True,26437,True,1609322224.975,-3.0,-1.0,6.8125,12.75,10.6875,-42.25,-0.00384521484375,-0.047607421875,-0.34124755859375,-0.93878173828125,88,154,-69,0,0,[],-204,16,1015,5.585,-0.086,-0.039,41.3,29.011,29.011,4059,594,1000,3964.12213740458,300.0,
8,8,1,True,26437,True,1609322225.01,-5.1875,-0.8125,-8.5,12.0,10.25,-42.6875,-0.00408935546875,-0.04766845703125,-0.3389892578125,-0.9395751953125,-170,-180,51,0,0,[],-45,-228,1143,5.591,-0.086,-0.039,37.0,29.041,29.041,4013,618,1000,3973.282442748092,300.0,
9,9,1,True,26437,True,1609322225.044,1.9375,3.9375,28.0625,12.0,10.25,-42.6875,-0.0045166015625,-0.0479736328125,-0.34320068359375,-0.93804931640625,108,26,-159,0,0,[],23,67,816,5.581,-0.086,-0.041,40.3,29.05,29.05,4012,611,1000,3982.442748091603,300.0,
10,10,1,True,26437,True,1609322225.081,-6.4375,-6.4375,10.5,12.375,11.75,-41.0625,-0.00531005859375,-0.048095703125,-0.34259033203125,-0.938232421875,-225,133,51,0,0,[],-310,175,1027,5.583,-0.086,-0.043,38.5,28.971,28.971,3991,678,1000,3991.603053435114,300.0,
11,11,1,True,26437,True,1609322225.116,15.125,7.3125,3.3125,12.75,11.375,-43.0625,-0.00506591796875,-0.0477294921875,-0.34161376953125,-0.9385986328125,-20,401,-17,0,0,[],-112,-24,874,5.584,-0.086,-0.041,40.0,28.922,28.922,3973,636,1000,4000.763358778626,300.0,
12,12,1,True,26437,True,1609322225.152,-20.5,-12.125,6.875,12.75,11.375,-43.5625,-0.00372314453125,-0.04632568359375,-0.34075927734375,-0.93902587890625,23,-168,105,0,0,[],-58,-131,1081,5.586,-0.084,-0.038,38.6,28.921,28.921,4011,670,1000,4009.923664122137,300.0,
13,13,1,True,26437,True,1609322225.186,13.5625,3.0,-26.8125,12.75,11.375,-43.5625,-0.00421142578125,-0.04681396484375,-0.33514404296875,-0.94097900390625,-120,-229,-15,0,0,[],-188,297,1080,5.598,-0.085,-0.039,39.6,28.894,28.894,4014,638,1000,4019.083969465649,300.0,
14,14,1,True,26437,True,1609322225.221,21.9375,8.6875,-6.0625,12.375,10.6875,-44.0,-0.00616455078125,-0.0482177734375,-0.3316650390625,-0.942138671875,-7,387,-153,0,0,[],-92,430,822,5.606,-0.086,-0.044,39.6,28.938,28.938,4037,618,1000,4028.24427480916,300.0,
15,15,1,True,26437,True,1609322225.257,1.5,-0.5625,-1.75,12.0,11.375,-44.75,-0.0037841796875,-0.04656982421875,-0.32958984375,-0.9429931640625,-113,-304,-2,0,0,[],-197,-267,973,5.61,-0.085,-0.037,38.9,28.892,28.892,3987,591,1000,4037.404580152672,300.0,
16,16,1,True,26437,True,1609322225.291,-15.0625,-0.8125,-9.5625,12.0,11.375,-44.75,-0.0059814453125,-0.04791259765625,-0.3336181640625,-0.94146728515625,-168,52,-167,0,0,[],-252,94,808,5.601,-0.086,-0.043,41.4,28.843,28.842,4061,566,1000,4046.564885496183,300.0,
17,17,1,True,26437,True,1609322225.327,14.4375,7.8125,-2.375,12.375,11.375,-44.25,-0.00653076171875,-0.04833984375,-0.33087158203125,-0.9423828125,22,280,482,0,0,[],97,65,345,5.606,-0.087,-0.038,43.3,28.748,28.748,3994,584,1000,4055.725190839695,300.0,
18,18,1,True,26437,True,1609322225.365,-12.1875,10.0,-7.75,12.0,11.75,-43.875,-0.00592041015625,-0.04925537109375,-0.3280029296875,-0.943359375,-12,-259,-252,0,0,[],26,-296,861,5.613,-0.088,-0.044,35.7,28.792,28.792,3983,598,1000,4064.885496183206,300.0,
19,19,1,True,26437,True,1609322225.398,-7.875,7.75,-21.9375,11.5625,11.375,-44.6875,-0.00848388671875,-0.04937744140625,-0.32421875,-0.94464111328125,40,-230,-73,0,0,[],-45,-183,902,5.621,-0.087,-0.048,37.2,28.851,28.852,4031,602,1000,4074.045801526717,300.0,
20,20,1,True,26437,True,1609322225.433,21.1875,-9.3125,10.6875,11.5625,11.375,-44.6875,-0.00885009765625,-0.04937744140625,-0.32281494140625,-0.94512939453125,88,-173,-215,0,0,[],-12,260,1100,5.621,-0.087,-0.049,35.5,28.869,28.87,3959,612,1000,4083.206106870229,300.0,
21,21,1,True,26437,True,1609322225.466,4.0625,-6.4375,-4.1875,12.375,11.375,-45.0625,-0.008544921875,-0.04913330078125,-0.319580078125,-0.94622802734375,-81,134,9,0,0,[],210,-155,850,5.631,-0.087,-0.047,48.1,28.76,28.76,4005,640,1000,4092.36641221374,300.0,
22,22,1,True,26437,True,1609322225.504,0.0,10.8125,-7.375,11.25,11.375,-47.1875,-0.00787353515625,-0.05035400390625,-0.31597900390625,-0.9473876953125,190,-277,-8,0,0,[],102,-232,967,5.639,-0.089,-0.047,42.1,28.684,28.684,4033,605,1000,4101.526717557252,300.0,
23,23,1,True,26437,True,1609322225.541,-3.0,1.4375,-2.375,11.25,11.375,-47.1875,-0.00439453125,-0.04998779296875,-0.32000732421875,-0.94610595703125,-229,144,-80,0,0,[],-319,183,894,5.63,-0.092,-0.04,34.8,28.756,28.756,3986,621,1000,4110.687022900764,300.0,
24,24,1,True,26437,True,1609322225.573,-1.6875,-1.4375,4.4375,11.25,11.375,-46.75,-0.00341796875,-0.0498046875,-0.32061767578125,-0.9459228515625,54,101,123,0,0,[],89,208,1285,5.63,-0.092,-0.038,37.2,28.823,28.823,4052,591,1000,4119.847328244275,300.0,
25,25,1,True,26437,True,1609322225.607,-6.0625,1.6875,0.75,11.5625,11.375,-46.25,-0.0023193359375,-0.049560546875,-0.31854248046875,-0.94659423828125,-72,-76,-77,0,0,[],-162,-41,898,5.633,-0.092,-0.036,36.6,28.823,28.823,4078,587,1000,4129.007633587786,300.0,
26,26,1,True,26437,True,1609322225.641,-0.1875,2.25,11.875,11.5625,11.375,-46.25,-0.00146484375,-0.0491943359375,-0.3197021484375,-0.94622802734375,7,193,74,0,0,[],-83,227,1050,5.631,-0.092,-0.034,34.3,28.892,28.892,4053,560,1000,4138.167938931298,300.0,
27,27,1,True,26437,True,1609322225.672,-7.375,-1.0625,10.375,11.5625,11.375,-48.0,-0.001220703125,-0.04888916015625,-0.3167724609375,-0.94720458984375,103,-68,-109,0,0,[],-83,76,934,5.635,-0.092,-0.033,36.2,28.974,28.974,4082,546,1000,4147.32824427481,300.0,
28,28,1,True,26437,True,1609322225.706,-2.0625,-2.125,-1.8125,11.25,12.0625,-49.25,-0.00067138671875,-0.04888916015625,-0.31805419921875,-0.94683837890625,-126,-199,17,0,0,[],-216,-167,993,5.634,-0.092,-0.032,35.5,28.995,28.995,4025,583,1000,4156.48854961832,300.0,
29,29,1,True,26437,True,1609322225.738,17.375,4.0,7.9375,11.25,12.0625,-49.25,-0.00286865234375,-0.0498046875,-0.316162109375,-0.9473876953125,-54,48,-24,0,0,[],-145,84,951,5.639,-0.092,-0.037,45.8,28.898,28.897,4073,601,1000,4165.648854961832,300.0,
30,30,1,True,26437,True,1609322225.777,-4.75,-1.9375,2.75,11.5625,9.875,-49.25,-0.0037841796875,-0.05023193359375,-0.3154296875,-0.9476318359375,111,56,-78,0,0,[],-236,-208,913,5.639,-0.092,-0.036,40.3,28.849,28.849,4151,619,1000,4174.809160305344,300.0,
31,31,1,True,26437,True,1609322225.813,-8.8125,3.4375,-7.125,10.5625,12.1875,-49.25,-0.00372314453125,-0.05023193359375,-0.314453125,-0.94793701171875,-3,-94,-163,0,0,[],-94,-56,812,5.642,-0.093,-0.038,39.0,28.846,28.846,4098,559,1000,4183.969465648855,300.0,
32,32,1,True,26437,True,1609322225.848,0.75,6.25,-2.875,11.0,11.0625,-51.75,-0.00482177734375,-0.0506591796875,-0.3145751953125,-0.9478759765625,175,-231,-138,0,0,[],84,-191,836,5.642,-0.093,-0.04,41.0,28.792,28.792,4130,615,1000,4193.129770992366,300.0,
33,33,1,True,26437,True,1609322225.884,4.8125,1.3125,2.0,11.0,11.0625,-51.75,-0.005126953125,-0.0509033203125,-0.31439208984375,-0.94793701171875,-147,-39,-153,0,0,[],-238,198,857,5.642,-0.093,-0.041,46.7,28.624,28.624,4201,593,1000,4202.290076335878,300.0,
34,34,1,True,26437,True,1609322225.926,16.4375,6.875,2.8125,11.25,10.25,-52.0625,-0.00439453125,-0.05096435546875,-0.3148193359375,-0.94775390625,-54,125,-3,0,0,[],-168,226,991,5.641,-0.094,-0.04,39.4,28.608,28.608,4116,574,1000,4211.450381679389,300.0,
35,35,1,True,26437,True,1609322225.961,2.8125,-2.25,-0.5625,11.0,11.0625,-53.0,-0.00244140625,-0.0501708984375,-0.3155517578125,-0.94757080078125,-64,-229,-233,0,0,[],143,18,877,5.64,-0.093,-0.036,39.0,28.602,28.602,4148,581,1000,4220.610687022901,300.0,
36,36,1,True,26437,True,1609322225.996,-0.625,-0.1875,0.0,11.0,11.0625,-53.0,-0.00274658203125,-0.05035400390625,-0.31524658203125,-0.94769287109375,309,10,204,0,0,[],217,46,1180,5.641,-0.093,-0.037,35.6,28.647,28.648,4146,624,1000,4229.770992366412,300.0,
37,37,1,True,26437,True,1609322226.028,-1.5,-0.9375,4.5625,9.75,11.0625,-53.375,-0.0023193359375,-0.05035400390625,-0.317138671875,-0.9468994140625,93,81,-129,0,0,[],-259,-16,1126,5.635,-0.093,-0.036,38.0,28.706,28.706,4216,576,1000,4238.931297709923,300.0,
38,38,1,True,26437,True,1609322226.063,6.0,-0.375,3.875,11.0,11.0625,-54.25,-0.00262451171875,-0.050537109375,-0.31805419921875,-0.94671630859375,-103,39,-185,0,0,[],-195,76,790,5.634,-0.094,-0.037,36.7,28.713,28.713,4195,539,1000,4248.091603053435,300.0,
39,39,1,True,26437,True,1609322226.096,-5.0,0.875,0.25,11.0,10.25,-55.375,-0.00238037109375,-0.05078125,-0.31732177734375,-0.94696044921875,201,-179,46,0,0,[],-435,14,1013,5.636,-0.094,-0.036,44.5,28.637,28.637,4188,592,1000,4257.251908396946,300.0,
40,40,1,True,26437,True,1609322226.134,2.0,-2.75,-2.5,11.0,10.25,-55.375,-0.003173828125,-0.05084228515625,-0.31585693359375,-0.94744873046875,-54,-195,-109,0,0,[],-147,-158,866,5.639,-0.094,-0.038,38.7,28.616,28.616,4260,578,1000,4266.412213740457,300.0,
41,41,1,True,26437,True,1609322226.17,5.0,-0.75,0.9375,10.5625,10.25,-56.5625,-0.00390625,-0.0513916015625,-0.314453125,-0.9478759765625,147,258,62,0,0,[],-301,-33,1062,5.642,-0.095,-0.039,37.0,28.657,28.657,4174,568,1000,4275.572519083969,300.0,
42,42,1,True,26437,True,1609322226.204,4.125,-0.125,-4.625,9.75,9.1875,-55.375,-0.00457763671875,-0.05181884765625,-0.31329345703125,-0.9482421875,-119,1,0,0,0,[],-213,42,975,5.644,-0.095,-0.04,35.1,28.696,28.696,4217,598,1000,4284.732824427481,300.0,
43,43,1,True,26437,True,1609322226.236,-3.5,2.5625,6.0625,9.75,9.1875,-55.375,-0.00421142578125,-0.0518798828125,-0.3135986328125,-0.9481201171875,-31,-96,69,0,0,[],-124,-56,1044,5.644,-0.095,-0.04,35.6,28.774,28.774,4254,570,1000,4293.893129770992,300.0,
44,44,1,True,26437,True,1609322226.269,-6.1875,-0.0625,-4.0,9.75,7.375,-59.0625,-0.00384521484375,-0.05181884765625,-0.31365966796875,-0.9481201171875,111,-155,-67,0,0,[],17,-116,908,5.644,-0.096,-0.039,42.5,28.721,28.721,4259,578,1000,4303.053435114503,300.0,
45,45,1,True,26437,True,1609322226.306,-0.6875,2.1875,5.9375,9.75,8.0625,-57.5,-0.0040283203125,-0.0523681640625,-0.3133544921875,-0.94818115234375,86,63,54,0,0,[],-8,103,1029,5.644,-0.096,-0.04,41.4,28.646,28.646,4202,600,1000,4312.213740458015,300.0,
46,46,1,True,26437,True,1609322226.342,-4.625,-0.1875,3.1875,9.75,8.0625,-57.5,-0.0032958984375,-0.0521240234375,-0.31396484375,-0.947998046875,-49,-222,20,0,0,[],-144,-184,995,5.643,-0.096,-0.038,35.2,28.714,28.714,4256,591,1000,4321.374045801526,300.0,
47,47,1,True,26437,True,1609322226.374,4.125,2.5625,16.1875,9.0625,6.5625,-58.6875,-0.00323486328125,-0.05230712890625,-0.31500244140625,-0.9476318359375,-35,-106,-65,0,0,[],-130,-67,909,5.641,-0.097,-0.039,37.4,28.798,28.798,4289,562,1000,4330.534351145038,300.0,
48,48,1,True,26437,True,1609322226.409,-10.875,-1.625,29.5,9.0625,5.0625,-59.0625,-0.0029296875,-0.0521240234375,-0.31817626953125,-0.94659423828125,71,103,-13,0,0,[],-22,141,962,5.634,-0.096,-0.038,36.1,28.791,28.791,4251,592,1000,4339.694656488549,300.0,
49,49,1,True,26437,True,1609322226.442,-5.0625,-1.6875,-10.5,9.0625,5.0625,-59.0625,-0.001953125,-0.05169677734375,-0.3206787109375,-0.94580078125,59,-39,-3,0,0,[],-34,-3,971,5.629,-0.096,-0.036,43.6,28.724,28.724,4299,587,1000,4348.854961832061,300.0,
50,50,1,True,26437,True,1609322226.48,-13.5,-12.125,5.0,9.0625,5.5,-59.5,0.001708984375,-0.04962158203125,-0.3192138671875,-0.9464111328125,6,-78,-93,0,0,[],-86,-50,881,5.632,-0.095,-0.028,46.6,28.605,28.604,4308,588,1000,4358.015267175572,300.0,
51,51,1,True,26437,True,1609322226.518,5.3125,-1.6875,6.875,9.5,4.75,-57.875,0.00054931640625,-0.05010986328125,-0.31915283203125,-0.9464111328125,-75,107,-103,0,0,[],-168,138,872,5.632,-0.095,-0.031,34.1,28.673,28.673,4267,582,1000,4367.175572519084,300.0,
52,52,1,True,26437,True,1609322226.55,-16.9375,-11.5625,2.0,8.6875,3.25,-59.0625,0.0010986328125,-0.0498046875,-0.31915283203125,-0.9464111328125,245,-220,167,0,0,[],152,-191,1143,5.632,-0.095,-0.029,36.4,28.755,28.755,4348,574,1000,4376.335877862595,300.0,
53,53,1,True,26437,True,1609322226.584,18.3125,8.4375,-2.8125,8.6875,3.25,-59.0625,-0.00079345703125,-0.05059814453125,-0.3193359375,-0.9462890625,39,48,102,0,0,[],-54,81,1078,5.632,-0.095,-0.034,38.6,28.788,28.788,4350,584,1000,4385.496183206107,300.0,
54,54,1,True,26437,True,1609322226.617,0.375,-6.8125,2.8125,8.25,2.5625,-59.0625,-0.00213623046875,-0.05120849609375,-0.31890869140625,-0.9464111328125,-94,-49,-242,0,0,[],-188,-13,733,5.633,-0.095,-0.036,45.6,28.711,28.71,4331,617,1000,4394.656488549618,300.0,
55,55,1,True,26437,True,1609322226.654,27.0625,5.75,-5.3125,8.25,1.1875,-57.375,-0.00830078125,-0.0509033203125,-0.31787109375,-0.94671630859375,-408,166,-491,0,0,[],-497,213,483,5.635,-0.091,-0.048,44.0,28.626,28.626,4315,581,1000,4403.816793893129,300.0,
56,56,1,True,26437,True,1609322226.691,-6.8125,1.75,1.1875,8.25,1.1875,-57.375,-0.0052490234375,-0.04925537109375,-0.3162841796875,-0.9473876953125,346,-223,457,0,0,[],258,-182,1433,5.639,-0.089,-0.04,43.9,28.568,28.568,4339,530,1000,4412.977099236641,300.0,
57,57,1,True,26437,True,1609322226.728,-16.4375,-5.3125,3.0,6.875,-1.75,-57.375,-0.00469970703125,-0.04949951171875,-0.3184814453125,-0.9466552734375,148,24,337,0,0,[],59,63,1313,5.633,-0.091,-0.04,44.6,28.489,28.488,4364,549,1000,4422.137404580152,300.0,
58,58,1,True,26437,True,1609322226.769,8.0,5.5625,6.125,7.25,-2.875,-57.0,-0.00347900390625,-0.049072265625,-0.318115234375,-0.94677734375,9,120,-54,0,0,[],-79,157,921,5.634,-0.091,-0.037,38.7,28.431,28.431,4410,597,1000,4431.297709923664,300.0,
59,59,1,True,26437,True,1609322226.804,-9.0625,-1.5,8.6875,8.0,-2.875,-55.0,-0.0028076171875,-0.04852294921875,-0.3187255859375,-0.94659423828125,-37,-69,197,0,0,[],-126,-33,1173,5.633,-0.089,-0.036,36.4,28.472,28.472,4407,561,1000,4440.458015267175,300.0,
60,60,1,True,26437,True,1609322226.837,-3.0,0.25,-6.0,8.0,-2.875,-55.0,-0.0028076171875,-0.04864501953125,-0.31878662109375,-0.94659423828125,-222,-218,-130,0,0,[],-311,-183,845,5.633,-0.089,-0.036,35.0,28.546,28.546,4397,570,1000,4449.618320610687,300.0,
61,61,1,True,26437,True,1609322226.87,5.5625,3.1875,-5.6875,7.25,-3.5625,-54.5,-0.00421142578125,-0.0489501953125,-0.31829833984375,-0.94671630859375,-81,-248,-23,0,0,[],-169,-210,952,5.634,-0.089,-0.039,35.7,28.603,28.603,4386,553,1000,4458.778625954198,300.0,
62,62,1,True,26437,True,1609322226.903,1.1875,3.8125,-0.0625,6.0625,-4.6875,-50.75,-0.00457763671875,-0.049072265625,-0.317626953125,-0.9468994140625,117,-94,27,0,0,[],28,-55,1002,5.635,-0.089,-0.039,36.4,28.655,28.655,4381,644,1000,4467.93893129771,300.0,
63,63,1,True,26437,True,1609322226.936,-1.625,2.25,-15.25,6.0625,-4.6875,-50.75,-0.0048828125,-0.04937744140625,-0.3160400390625,-0.94744873046875,113,-106,172,0,0,[],24,-66,891,5.639,-0.091,-0.04,36.1,28.692,28.692,4415,527,1000,4477.099236641221,300.0,
64,64,1,True,26437,True,1609322226.97,-5.75,3.9375,-16.625,7.25,-4.25,-49.1875,-0.0047607421875,-0.049560546875,-0.31439208984375,-0.947998046875,-7,-149,86,0,0,[],-97,-110,1062,5.642,-0.091,-0.039,37.5,28.714,28.714,4367,550,1000,4486.259541984732,300.0,
65,65,1,True,26437,True,1609322227.004,4.9375,0.0625,-11.8125,6.5,-6.1875,-47.5,-0.00604248046875,-0.04974365234375,-0.3125,-0.9486083984375,-145,-141,-253,0,0,[],-234,-99,722,5.646,-0.091,-0.043,35.4,28.773,28.773,4412,563,1000,4495.419847328244,300.0,
66,66,1,True,26437,True,1609322227.036,-10.0625,1.6875,-11.3125,6.5,-6.1875,-47.5,-0.0054931640625,-0.04974365234375,-0.3125,-0.9486083984375,-116,-243,-55,0,0,[],-205,-202,920,5.646,-0.091,-0.041,38.8,28.807,28.808,4366,540,1000,4504.580152671755,300.0,
67,67,1,True,26437,True,1609322227.071,-15.25,1.3125,-0.25,6.875,-5.0625,-46.6875,-0.00439453125,-0.0501708984375,-0.31329345703125,-0.94830322265625,-202,-334,-135,0,0,[],-293,-295,840,5.644,-0.092,-0.039,36.0,28.819,28.819,4409,587,1000,4513.740458015267,300.0,
68,68,1,True,26437,True,1609322227.104,-12.5,-2.125,3.125,6.875,-5.0625,-46.6875,-0.00396728515625,-0.050048828125,-0.313720703125,-0.94818115234375,-153,-260,-32,0,0,[],-101,229,895,5.644,-0.092,-0.038,37.0,28.872,28.872,4388,606,1000,4522.900763358778,300.0,
69,69,1,True,26437,True,1609322227.137,-2.4375,-2.125,1.375,6.875,-5.75,-43.75,-0.00274658203125,-0.04913330078125,-0.31463623046875,-0.94793701171875,-31,-23,-120,0,0,[],-121,12,855,5.642,-0.091,-0.036,34.9,28.933,28.933,4413,574,1000,4532.06106870229,300.0,
70,70,1,True,26437,True,1609322227.169,5.25,2.1875,7.625,5.75,-4.6875,-40.5625,-0.00311279296875,-0.0496826171875,-0.31561279296875,-0.94757080078125,30,57,-101,0,0,[],-59,93,874,5.64,-0.092,-0.037,38.7,28.965,28.965,4407,564,1000,4541.221374045801,300.0,
71,71,1,True,26437,True,1609322227.205,3.0625,-2.1875,3.0,6.5,-3.5625,-39.6875,-0.003173828125,-0.04931640625,-0.31573486328125,-0.94757080078125,151,-20,157,0,0,[],-40,87,1133,5.64,-0.091,-0.037,36.0,28.957,28.957,4402,571,1000,4550.381679389313,300.0,
72,72,1,True,26437,True,1609322227.237,-0.625,-2.1875,-0.3125,6.5,-3.5625,-39.6875,-0.00408935546875,-0.04974365234375,-0.316162109375,-0.9473876953125,78,-22,-31,0,0,[],-11,16,944,5.639,-0.092,-0.039,44.4,28.9,28.9,4422,552,1000,4559.541984732824,300.0,
73,73,1,True,26437,True,1609322227.275,2.3125,-0.875,2.625,5.375,-3.25,-38.0625,-0.00457763671875,-0.04962158203125,-0.31597900390625,-0.94744873046875,-16,70,-172,0,0,[],-62,-105,1158,5.639,-0.091,-0.039,42.1,28.8,28.8,4426,540,1000,4568.702290076336,300.0,
74,74,1,True,26437,True,1609322227.313,1.4375,-2.5,4.375,5.75,-2.0625,-35.0625,-0.00592041015625,-0.0499267578125,-0.31695556640625,-0.94708251953125,-81,30,-64,0,0,[],-170,72,911,5.636,-0.091,-0.043,36.3,28.811,28.811,4478,592,1000,4577.862595419847,300.0,
75,75,1,True,26437,True,1609322227.346,-3.25,3.125,-1.5,5.75,-1.0,-35.0625,-0.0054931640625,-0.0498046875,-0.31689453125,-0.9471435546875,-64,-75,-91,0,0,[],-27,44,898,5.637,-0.091,-0.041,35.8,28.894,28.894,4456,562,1000,4587.022900763359,300.0,
76,76,1,True,26437,True,1609322227.38,-1.875,2.375,-8.4375,5.75,-1.0,-35.0625,-0.00469970703125,-0.049560546875,-0.3162841796875,-0.9473876953125,-3,-141,144,0,0,[],-92,-101,1120,5.639,-0.091,-0.04,37.4,28.888,28.888,4572,566,1000,4596.18320610687,300.0,
77,77,1,True,26437,True,1609322227.413,1.5625,4.1875,0.375,5.75,0.375,-33.1875,-0.005859375,-0.0498046875,-0.31646728515625,-0.947265625,-21,279,-20,0,0,[],-48,152,1053,5.637,-0.091,-0.043,39.4,28.88,28.88,4540,569,1000,4605.343511450382,300.0,
78,78,1,True,26437,True,1609322227.449,17.0625,3.4375,6.5625,5.75,0.375,-33.1875,-0.00616455078125,-0.0499267578125,-0.31610107421875,-0.9473876953125,-154,612,287,0,0,[],-243,655,1263,5.639,-0.091,-0.043,37.8,28.897,28.897,4508,573,1000,4614.503816793893,300.0,
79,79,1,True,26437,True,1609322227.483,-4.3125,2.6875,39.5625,6.0625,1.5,-32.6875,-0.00433349609375,-0.049560546875,-0.31781005859375,-0.94683837890625,14,-96,286,0,0,[],-75,-57,1262,5.635,-0.091,-0.039,38.2,28.879,28.879,4598,543,1000,4623.664122137405,300.0,
80,80,1,True,26437,True,1609322227.517,-9.125,2.875,26.25,6.0625,3.0,-30.6875,-0.00225830078125,-0.0496826171875,-0.330078125,-0.942626953125,-224,4,23,0,0,[],-314,41,999,5.609,-0.092,-0.037,44.1,28.816,28.816,4564,559,1000,4632.824427480916,300.0,
81,81,1,True,26437,True,1609322227.554,5.625,1.125,-14.0,6.0625,3.0,-30.6875,-0.00390625,-0.04974365234375,-0.3287353515625,-0.943115234375,91,239,104,0,0,[],2,278,1080,5.612,-0.091,-0.039,37.4,28.874,28.874,4543,531,1000,4641.984732824428,300.0,
82,82,1,True,26437,True,1609322227.588,25.125,4.625,-22.4375,7.25,4.1875,-29.875,-0.01019287109375,-0.04974365234375,-0.32427978515625,-0.944580078125,0,16,-152,0,0,[],4,42,1472,5.621,-0.087,-0.051,40.8,28.807,28.807,4583,568,1000,4651.145038167939,300.0,
83,83,1,True,26437,True,1609322227.624,-2.0,4.5,-2.25,6.5,5.5625,-29.875,-0.010986328125,-0.0511474609375,-0.3226318359375,-0.945068359375,-92,204,144,0,0,[],-172,-19,1280,5.624,-0.089,-0.053,36.7,28.85,28.85,4587,543,1000,4660.305343511451,300.0,
84,84,1,True,26437,True,1609322227.657,-24.5,-10.625,-5.875,6.0625,6.0,-30.1875,-0.00872802734375,-0.04974365234375,-0.32061767578125,-0.94586181640625,-40,-57,178,0,0,[],-126,-10,1153,5.629,-0.088,-0.048,36.7,28.866,28.866,4540,569,1000,4669.465648854962,300.0,
85,85,1,True,26437,True,1609322227.691,21.875,10.8125,-3.0625,6.0625,6.0,-30.1875,-0.008056640625,-0.05029296875,-0.31524658203125,-0.9476318359375,193,-100,178,0,0,[],104,-54,1153,5.641,-0.089,-0.047,41.4,28.843,28.843,4601,615,1000,4678.625954198474,300.0,
86,86,1,True,26437,True,1609322227.729,-3.75,0.875,1.875,6.875,7.0625,-30.1875,-0.00640869140625,-0.050537109375,-0.31884765625,-0.9464111328125,38,49,200,0,0,[],-126,-9,917,5.633,-0.092,-0.044,37.9,28.784,28.784,4593,582,1000,4687.786259541985,300.0,
87,87,1,True,26437,True,1609322227.763,6.8125,2.9375,-30.5625,6.5,7.875,-30.1875,-0.00701904296875,-0.05194091796875,-0.31427001953125,-0.9478759765625,-41,54,-63,0,0,[],-134,99,912,5.643,-0.094,-0.046,37.9,28.808,28.808,4538,620,1000,4696.946564885496,300.0,
88,88,1,True,26437,True,1609322227.798,-14.625,-4.375,-28.375,6.5,7.875,-30.1875,-0.002685546875,-0.046875,-0.31072998046875,-0.9493408203125,-148,89,-284,0,0,[],-234,122,692,5.651,-0.087,-0.034,37.3,28.831,28.831,4607,566,1000,4706.106870229008,300.0,
89,89,1,True,26437,True,1609322227.832,-12.4375,10.5625,-19.3125,8.0,7.875,-29.0625,-0.00262451171875,-0.04620361328125,-0.30401611328125,-0.9515380859375,-96,118,-5,0,0,[],103,129,1019,5.665,-0.086,-0.033,38.9,28.807,28.807,4616,607,1000,4715.26717557252,300.0,
90,90,1,True,26437,True,1609322227.867,19.4375,-3.1875,11.9375,6.5,10.0,-30.1875,-0.0009765625,-0.04730224609375,-0.30853271484375,-0.95001220703125,-236,234,9,0,0,[],-55,76,878,5.655,-0.088,-0.031,36.7,28.841,28.842,4550,649,1000,4724.427480916031,300.0,
91,91,1,True,26437,True,1609322227.901,1.5,1.9375,-10.0,6.5,10.0,-30.1875,-0.001708984375,-0.0474853515625,-0.3072509765625,-0.950439453125,53,269,259,0,0,[],-33,301,1235,5.657,-0.088,-0.032,36.3,28.887,28.887,4581,659,1000,4733.587786259542,300.0,
92,92,1,True,26437,True,1609322227.934,14.1875,-4.5625,11.75,6.5,12.5,-29.875,-0.00054931640625,-0.048828125,-0.30767822265625,-0.95025634765625,2,357,306,0,0,[],-42,-349,1193,5.656,-0.092,-0.031,36.9,28.92,28.92,4558,577,1000,4742.748091603054,300.0,
93,93,1,True,26437,True,1609322227.967,3.8125,0.8125,7.4375,7.5625,12.875,-31.5625,-0.0006103515625,-0.04925537109375,-0.30865478515625,-0.94989013671875,-12,128,135,0,0,[],49,-144,1044,5.654,-0.093,-0.032,42.4,28.93,28.93,4522,628,1000,4751.908396946565,300.0,
94,94,1,True,26437,True,1609322228.001,3.8125,1.4375,6.625,7.5625,12.875,-31.5625,-0.00091552734375,-0.04949951171875,-0.30950927734375,-0.9495849609375,-83,75,142,0,0,[],-174,106,1118,5.653,-0.093,-0.032,50.1,28.666,28.665,4556,640,1000,4761.068702290077,300.0,
95,95,1,True,26437,True,1609322228.045,-2.1875,-3.25,5.375,8.0,12.875,-32.0,-0.00189208984375,-0.04986572265625,-0.31048583984375,-0.94927978515625,-96,-53,-53,0,0,[],-188,-19,922,5.651,-0.093,-0.034,46.4,28.552,28.551,4568,589,1000,4770.229007633588,300.0,
96,96,1,True,26437,True,1609322228.084,-1.25,-3.125,18.6875,8.25,13.5625,-32.0,-0.002197265625,-0.04986572265625,-0.31298828125,-0.94842529296875,71,27,-42,0,0,[],-249,-29,901,5.645,-0.093,-0.035,42.2,28.544,28.544,4593,611,1000,4779.389312977099,300.0,
97,97,1,True,26437,True,1609322228.122,-2.0625,-4.5625,-1.1875,9.5,13.5625,-32.75,-0.00323486328125,-0.0504150390625,-0.3131103515625,-0.9483642578125,42,-38,43,0,0,[],-130,250,958,5.645,-0.093,-0.037,40.7,28.454,28.454,4622,594,1000,4788.549618320611,300.0,
98,98,1,True,26437,True,1609322228.158,1.625,-2.8125,5.375,8.6875,14.0,-33.25,-0.00323486328125,-0.04998779296875,-0.3133544921875,-0.94830322265625,182,-36,0,0,0,[],91,0,976,5.644,-0.093,-0.037,39.2,28.462,28.462,4859,595,1000,4797.709923664122,300.0,
99,99,1,True,26437,True,1609322228.192,-2.1875,2.25,-15.0,8.6875,14.0,-33.25,-0.00372314453125,-0.0499267578125,-0.3121337890625,-0.94873046875,-5,-50,22,0,0,[],43,107,1070,5.647,-0.092,-0.038,42.7,28.352,28.352,4877,455,1000,4806.870229007633,300.0,
100,100,1,True,26437,True,1609322228.231,5.0625,7.0625,21.1875,8.6875,13.5625,-34.5,-0.0040283203125,-0.0501708984375,-0.31494140625,-0.94781494140625,-85,171,124,0,0,[],217,62,987,5.641,-0.092,-0.039,36.7,28.409,28.41,4922,582,1000,4816.030534351145,300.0,
101,101,1,True,26437,True,1609322228.265,-5.125,-4.25,-9.9375,8.6875,14.375,-35.25,-0.00390625,-0.04974365234375,-0.3126220703125,-0.94854736328125,-84,-74,211,0,0,[],126,119,905,5.646,-0.092,-0.038,45.8,28.311,28.311,4875,537,1000,4825.190839694656,300.0,
102,102,1,True,26437,True,1609322228.304,15.875,5.875,18.75,8.6875,14.375,-35.25,-0.003662109375,-0.0496826171875,-0.31634521484375,-0.94732666015625,39,396,222,0,0,[],-50,434,1197,5.639,-0.092,-0.038,48.5,28.045,28.045,4902,588,1000,4834.351145038167,300.0,
103,103,1,True,26437,True,1609322228.347,15.4375,14.3125,4.125,9.0625,13.25,-35.75,-0.00323486328125,-0.05010986328125,-0.3177490234375,-0.94683837890625,-161,378,125,0,0,[],-252,415,1101,5.635,-0.093,-0.037,35.5,28.118,28.118,4927,531,1000,4843.511450381679,300.0,
104,104,1,True,26437,True,1609322228.38,6.6875,9.0,9.1875,9.75,14.0,-37.0,-0.00238037109375,-0.04949951171875,-0.31982421875,-0.9461669921875,-227,408,214,0,0,[],119,118,1059,5.631,-0.092,-0.036,47.4,28.089,28.089,4925,549,1000,4852.67175572519,300.0,
105,105,1,True,26437,True,1609322228.421,1.75,-3.9375,6.1875,10.1875,14.0,-36.1875,-0.001708984375,-0.04925537109375,-0.32012939453125,-0.94610595703125,73,269,129,0,0,[],87,-17,641,5.63,-0.092,-0.035,38.5,28.01,28.01,4922,531,1000,4861.832061068701,300.0,
106,106,1,True,26437,True,1609322228.456,6.25,1.9375,7.0,10.5625,12.875,-36.5625,-0.00146484375,-0.0489501953125,-0.321533203125,-0.94561767578125,0,214,-12,0,0,[],-89,247,963,5.628,-0.092,-0.034,44.6,27.938,27.938,4908,580,1000,4870.992366412213,300.0,
107,107,1,True,26437,True,1609322228.495,2.375,2.25,-4.75,10.5625,12.875,-36.5625,-0.00177001953125,-0.04931640625,-0.32037353515625,-0.94598388671875,15,182,189,0,0,[],-75,216,1165,5.63,-0.092,-0.035,34.8,28.002,28.002,4971,524,1000,4880.152671755725,300.0,
108,108,1,True,26437,True,1609322228.527,6.625,2.0625,-11.3125,10.1875,14.0,-36.5625,-0.00189208984375,-0.04937744140625,-0.3187255859375,-0.946533203125,35,38,-160,0,0,[],-55,73,815,5.633,-0.092,-0.035,41.4,27.992,27.992,4979,586,1000,4889.312977099236,300.0,
109,109,1,True,26437,True,1609322228.564,-2.625,-1.8125,4.4375,10.1875,12.875,-37.0,-0.0020751953125,-0.04925537109375,-0.3197021484375,-0.94622802734375,136,-65,-161,0,0,[],-246,326,1069,5.631,-0.092,-0.035,46.2,27.913,27.913,4949,571,1000,4898.473282442747,300.0,
110,110,1,True,26437,True,1609322228.604,3.0,1.5,-3.4375,9.75,12.1875,-38.6875,-0.0030517578125,-0.04998779296875,-0.3184814453125,-0.94659423828125,22,92,201,0,0,[],-67,129,1177,5.633,-0.093,-0.037,37.8,27.872,27.872,4939,540,1000,4907.633587786259,300.0,
111,111,1,True,26437,True,1609322228.64,-1.5625,0.375,-6.625,9.75,12.1875,-38.6875,-0.00335693359375,-0.05010986328125,-0.31597900390625,-0.94744873046875,-150,121,9,0,0,[],24,-118,959,5.639,-0.093,-0.038,43.2,27.801,27.801,4980,558,1000,4916.79389312977,300.0,
112,112,1,True,26437,True,1609322228.678,1.5,0.625,-12.125,11.25,11.375,-37.0,-0.00274658203125,-0.04962158203125,-0.3125,-0.9486083984375,109,-80,-3,0,0,[],-7,-122,1028,5.646,-0.092,-0.036,35.9,27.889,27.889,4845,576,1000,4925.954198473282,300.0,
113,113,1,True,26437,True,1609322228.71,1.9375,3.1875,31.0625,11.0,9.875,-37.375,-0.00262451171875,-0.04974365234375,-0.31744384765625,-0.94696044921875,-123,133,-19,0,0,[],-213,169,956,5.635,-0.092,-0.036,46.7,27.868,27.868,4834,576,1000,4935.114503816793,300.0,
114,114,1,True,26437,True,1609322228.751,-16.8125,2.0625,-7.75,11.0,9.875,-37.375,-0.00140380859375,-0.04998779296875,-0.321044921875,-0.94573974609375,110,-114,315,0,0,[],19,-80,1291,5.628,-0.093,-0.035,45.4,27.721,27.72,4831,602,1000,4944.274809160305,300.0,
115,115,1,True,26437,True,1609322228.789,3.4375,-4.25,7.4375,11.0,11.75,-36.5625,-0.0042724609375,-0.04974365234375,-0.31866455078125,-0.946533203125,-100,363,128,0,0,[],492,-433,1162,5.635,-0.088,-0.032,36.2,27.782,27.783,4805,606,1000,4953.435114503816,300.0,
116,116,1,True,26437,True,1609322228.823,-21.1875,-7.9375,3.125,10.5625,11.0625,-36.1875,-0.0042724609375,-0.0496826171875,-0.31695556640625,-0.9471435546875,-163,-171,-268,0,0,[],-252,-132,707,5.636,-0.091,-0.039,43.5,27.727,27.727,4816,596,1000,4962.595419847328,300.0,
117,117,1,True,26437,True,1609322228.861,8.5625,3.8125,-4.375,9.75,11.75,-35.75,-0.0059814453125,-0.0509033203125,-0.31298828125,-0.9483642578125,-62,189,242,0,0,[],-153,231,1218,5.645,-0.093,-0.043,36.2,27.791,27.791,4814,649,1000,4971.755725190839,300.0,
118,118,1,True,26437,True,1609322228.895,18.9375,8.8125,-1.4375,9.75,11.75,-35.75,-0.00628662109375,-0.0511474609375,-0.313232421875,-0.94830322265625,-101,197,164,0,0,[],-192,240,1140,5.645,-0.093,-0.044,48.9,27.557,27.557,4830,613,1000,4980.916030534351,300.0,
119,119,1,True,26437,True,1609322228.939,1.625,0.375,-2.6875,11.25,11.0625,-34.5,-0.00616455078125,-0.05072021484375,-0.3111572265625,-0.948974609375,-77,-193,-119,0,0,[],-137,39,1161,5.647,-0.094,-0.044,37.3,27.603,27.603,4829,655,1000,4990.076335877862,300.0,
120,120,1,True,26437,True,1609322228.974,14.0,-0.4375,-3.6875,11.25,11.0625,-33.25,-0.0057373046875,-0.049560546875,-0.309814453125,-0.949462890625,50,-138,-578,0,0,[],-38,-97,1421,5.651,-0.089,-0.046,36.1,27.662,27.663,4869,626,1000,4999.236641221374,300.0,
121,121,1,True,26437,True,1609322229.007,-5.3125,-1.5,1.25,10.5625,11.375,-33.25,-0.00482177734375,-0.049072265625,-0.3087158203125,-0.94989013671875,-269,-60,-171,0,0,[],-357,-21,804,5.654,-0.089,-0.039,40.7,27.73,27.73,4885,584,1000,5008.396946564885,300.0,
122,122,1,True,26437,True,1609322229.043,-28.375,-16.125,3.625,10.5625,11.375,-33.25,-0.00323486328125,-0.04754638671875,-0.30865478515625,-0.949951171875,126,-186,185,0,0,[],40,-151,1161,5.654,-0.088,-0.035,40.5,27.712,27.712,4870,587,1000,5017.557251908397,300.0,
123,123,1,True,26437,True,1609322229.078,1.3125,-2.0625,-5.3125,11.0,12.5,-33.6875,-0.00433349609375,-0.048095703125,-0.3065185546875,-0.95062255859375,27,68,-109,0,0,[],-104,-60,837,5.658,-0.087,-0.036,39.9,27.745,27.745,4893,605,1000,5026.717557251908,300.0,
124,124,1,True,26437,True,1609322229.113,-10.3125,-4.75,4.625,10.5625,14.0,-32.5,-0.00506591796875,-0.0491943359375,-0.3074951171875,-0.95025634765625,-132,48,-80,0,0,[],-175,-218,895,5.657,-0.089,-0.039,40.9,27.747,27.747,4919,631,1000,5035.87786259542,300.0,
125,125,1,True,26437,True,1609322229.149,28.375,10.6875,-7.0625,10.5625,14.0,-32.5,-0.004638671875,-0.04901123046875,-0.3082275390625,-0.95001220703125,-15,241,-126,0,0,[],-103,280,849,5.655,-0.089,-0.038,38.9,27.767,27.767,4960,626,1000,5045.038167938931,300.0,
126,126,1,True,26437,True,1609322229.184,-16.375,-3.25,1.1875,12.0,13.25,-32.75,-0.002685546875,-0.04766845703125,-0.30792236328125,-0.9501953125,218,-22,239,0,0,[],133,10,1215,5.656,-0.088,-0.034,37.3,27.851,27.851,4999,590,1000,5054.198473282443,300.0,
127,127,1,True,26437,True,1609322229.218,9.8125,5.75,-13.5625,11.5625,14.375,-34.5,-0.00286865234375,-0.04803466796875,-0.30548095703125,-0.95098876953125,-52,70,-140,0,0,[],-349,66,860,5.661,-0.089,-0.035,34.9,27.919,27.919,4981,611,1000,5063.358778625954,300.0,
128,128,1,True,26437,True,1609322229.25,0.25,-1.4375,-7.375,11.5625,14.375,-34.5,-0.0029296875,-0.04705810546875,-0.30511474609375,-0.951171875,32,-10,-181,0,0,[],-54,22,795,5.661,-0.087,-0.034,37.1,27.976,27.976,5001,546,1000,5072.519083969466,300.0,
129,129,1,True,26437,True,1609322229.285,0.0625,-12.9375,19.5625,11.5625,14.375,-31.1875,-0.00360107421875,-0.04754638671875,-0.30462646484375,-0.9512939453125,-67,-71,-77,0,0,[],-154,-36,898,5.661,-0.087,-0.036,35.8,28.063,28.063,5020,553,1000,5081.679389312977,300.0,
130,130,1,True,26437,True,1609322229.317,-7.0625,-0.875,-14.1875,11.5625,15.0625,-31.5625,-0.00274658203125,-0.04730224609375,-0.30181884765625,-0.95220947265625,20,-253,-224,0,0,[],-66,-220,752,5.669,-0.088,-0.034,45.3,28.004,28.003,5046,597,1000,5090.839694656489,300.0,
131,131,1,True,26437,True,1609322229.355,-9.0625,-1.6875,-13.375,12.75,15.5,-33.25,-0.00360107421875,-0.047607421875,-0.29779052734375,-0.95343017578125,-87,-493,21,0,0,[],-174,-458,997,5.677,-0.088,-0.035,38.9,28.028,28.028,5219,692,1000,5100.0,300.0,
132,132,1,True,26437,True,1609322229.389,6.3125,2.9375,-10.6875,12.75,15.5,-33.25,-0.005126953125,-0.04833984375,-0.29571533203125,-0.95404052734375,-79,267,187,0,0,[],-167,305,1163,5.681,-0.088,-0.038,44.7,27.971,27.971,5137,635,1000,5109.160305343511,300.0,
133,133,1,True,26437,True,1609322229.43,8.5,1.8125,-0.5625,13.0625,15.875,-32.0,-0.0047607421875,-0.0482177734375,-0.29425048828125,-0.95452880859375,61,108,553,0,0,[],-26,144,1529,5.684,-0.088,-0.037,35.1,27.981,27.981,5168,656,1000,5118.320610687023,300.0,
134,134,1,True,26437,True,1609322229.463,-7.5,0.4375,-16.25,12.0,15.0625,-32.5,-0.00494384765625,-0.04827880859375,-0.29498291015625,-0.9547119140625,35,138,-362,0,0,[],-143,-238,1235,5.685,-0.088,-0.036,43.9,27.939,27.939,5177,706,1000,5127.480916030535,300.0,
135,135,1,True,26437,True,1609322229.5,13.1875,3.875,-2.3125,12.0,15.0625,-32.5,-0.00555419921875,-0.0489501953125,-0.29205322265625,-0.95513916015625,-19,277,-184,0,0,[],-108,315,791,5.689,-0.089,-0.039,41.1,27.868,27.868,5273,736,1000,5136.641221374046,300.0,
136,136,1,True,26437,True,1609322229.538,-2.375,-2.3125,-12.125,13.875,16.5625,-33.25,-0.004638671875,-0.0484619140625,-0.290283203125,-0.9556884765625,102,-162,-64,0,0,[],14,-125,911,5.693,-0.089,-0.037,32.9,27.996,27.996,5289,680,1000,5145.801526717557,300.0,
137,137,1,True,26437,True,1609322229.569,7.875,3.8125,13.5625,13.0625,18.25,-33.25,-0.0042724609375,-0.04803466796875,-0.29351806640625,-0.9547119140625,-194,112,156,0,0,[],-282,148,1132,5.686,-0.088,-0.036,47.9,27.967,27.967,5265,671,1000,5154.961832061068,300.0,
138,138,1,True,26437,True,1609322229.61,-1.375,-0.4375,5.1875,14.5625,16.75,-33.25,-0.00433349609375,-0.04840087890625,-0.29644775390625,-0.95379638671875,-63,72,-150,0,0,[],-151,108,825,5.68,-0.089,-0.037,41.9,27.808,27.808,5308,736,1000,5164.12213740458,300.0,
139,139,1,True,26437,True,1609322229.648,11.125,3.375,-9.25,14.5625,16.75,-33.25,-0.00390625,-0.048095703125,-0.2972412109375,-0.95361328125,50,21,60,0,0,[],-36,57,1036,5.679,-0.089,-0.036,34.8,27.883,27.883,5301,764,1000,5173.282442748092,300.0,
140,140,1,True,26437,True,1609322229.681,-11.375,-4.125,3.8125,14.25,16.0625,-34.0625,-0.00238037109375,-0.04681396484375,-0.29779052734375,-0.9534912109375,86,-236,-125,0,0,[],0,-204,850,5.677,-0.087,-0.032,36.6,27.981,27.981,5296,670,1000,5182.442748091603,300.0,
141,141,1,True,26437,True,1609322229.715,-23.0625,-4.6875,4.5,15.6875,17.1875,-35.0,-0.00201416015625,-0.04730224609375,-0.30072021484375,-0.9525146484375,113,-407,203,0,0,[],26,-375,1180,5.671,-0.088,-0.032,34.7,28.042,28.043,5183,584,1000,5191.603053435114,300.0,
142,142,1,True,26437,True,1609322229.747,8.375,0.4375,-0.5625,15.6875,17.1875,-35.0,-0.004638671875,-0.0482177734375,-0.3004150390625,-0.95257568359375,-174,-36,-150,0,0,[],-261,0,825,5.671,-0.088,-0.037,35.9,28.127,28.127,5221,647,1000,5200.763358778626,300.0,
143,143,1,True,26437,True,1609322229.78,11.0,2.875,10.25,15.6875,19.0625,-34.5,-0.004638671875,-0.04827880859375,-0.30108642578125,-0.95233154296875,-15,465,435,0,0,[],-102,502,1411,5.67,-0.088,-0.037,45.0,28.065,28.065,5217,601,1000,5209.923664122138,300.0,
144,144,1,True,26437,True,1609322229.818,15.625,4.8125,-5.0,15.375,17.5625,-36.1875,-0.0048828125,-0.04840087890625,-0.300048828125,-0.95269775390625,-78,155,181,0,0,[],-166,192,1157,5.672,-0.089,-0.038,37.4,28.112,28.112,5251,663,1000,5219.083969465649,300.0,
145,145,1,True,26437,True,1609322229.852,6.6875,2.0625,-6.3125,15.375,17.1875,-35.75,-0.00531005859375,-0.04827880859375,-0.29937744140625,-0.952880859375,-29,249,-20,0,0,[],-116,287,955,5.673,-0.088,-0.038,44.4,28.016,28.016,5293,643,1000,5228.24427480916,300.0,
146,146,1,True,26437,True,1609322229.891,-4.1875,-3.0625,-4.8125,15.375,17.1875,-35.75,-0.004638671875,-0.047607421875,-0.3004150390625,-0.95263671875,63,-310,48,0,0,[],-6,162,1030,5.671,-0.087,-0.037,43.1,27.964,27.964,5296,669,1000,5237.404580152671,300.0,
147,147,1,True,26437,True,1609322229.928,-7.0,-3.9375,-5.6875,15.0,18.0,-36.1875,-0.0048828125,-0.0474853515625,-0.29840087890625,-0.9532470703125,218,-241,84,0,0,[],132,-204,1060,5.676,-0.087,-0.037,36.7,28.02,28.02,5306,660,1000,5246.564885496184,300.0,
148,148,1,True,26437,True,1609322229.962,2.0,2.1875,12.25,16.0625,19.0625,-37.375,-0.0050048828125,-0.0478515625,-0.3038330078125,-0.951171875,-46,78,89,0,0,[],-211,2,873,5.663,-0.088,-0.039,40.6,28.062,28.062,5283,604,1000,5255.725190839695,300.0,
149,149,1,True,26437,True,1609322229.996,2.9375,3.8125,-3.5625,16.0625,19.0625,-37.375,-0.0052490234375,-0.04833984375,-0.3040771484375,-0.951416015625,-118,314,20,0,0,[],-205,353,996,5.664,-0.088,-0.039,41.8,28.008,28.008,5327,631,1000,5264.885496183206,300.0,
150,150,1,True,26437,True,1609322230.033,-31.125,-16.3125,9.125,16.5,15.375,-37.375,0.0003662109375,-0.04534912109375,-0.3060302734375,-0.950927734375,290,-62,476,0,0,[],205,-36,1453,5.66,-0.086,-0.026,35.0,28.093,28.093,5323,670,1000,5274.045801526717,300.0,
151,151,1,True,26437,True,1609322230.066,26.6875,7.8125,-9.4375,16.0625,17.5625,-37.75,0.00048828125,-0.04473876953125,-0.3050537109375,-0.9512939453125,137,121,182,0,0,[],53,147,1159,5.663,-0.085,-0.026,47.3,28.05,28.05,5292,699,1000,5283.206106870229,300.0,
152,152,1,True,26437,True,1609322230.107,-25.5625,-11.25,6.125,16.0625,18.25,-37.75,0.00238037109375,-0.04351806640625,-0.305908203125,-0.9510498046875,157,-392,-75,0,0,[],74,-370,901,5.66,-0.084,-0.022,37.5,27.98,27.98,5310,643,1000,5292.366412213741,300.0,
153,153,1,True,26437,True,1609322230.142,-22.375,-9.9375,-1.0,16.0625,18.25,-37.75,0.00054931640625,-0.04510498046875,-0.30548095703125,-0.95111083984375,123,-224,243,0,0,[],39,-198,1220,5.661,-0.086,-0.026,33.8,28.072,28.072,5289,614,1000,5301.526717557252,300.0,
154,154,1,True,26437,True,1609322230.173,22.375,9.875,10.25,16.0625,18.0,-38.25,-0.00067138671875,-0.04669189453125,-0.306640625,-0.95068359375,61,400,-169,0,0,[],-25,429,806,5.658,-0.088,-0.029,45.9,28.025,28.025,5316,588,1000,5310.687022900763,300.0,
155,155,1,True,26437,True,1609322230.212,59.0,-1.375,0.5,16.75,18.0,-38.6875,-0.00506591796875,-0.04693603515625,-0.3055419921875,-0.95098876953125,-367,442,-52,0,0,[],-452,479,923,5.661,-0.086,-0.038,41.6,28.001,28.001,5320,627,1000,5319.847328244275,300.0,
156,156,1,True,26437,True,1609322230.25,7.8125,-8.25,2.4375,16.75,18.0,-38.6875,-0.00543212890625,-0.04632568359375,-0.30450439453125,-0.95135498046875,-406,489,287,0,0,[],-489,526,1263,5.664,-0.084,-0.038,35.8,28.012,28.012,5313,618,1000,5329.007633587786,300.0,
157,157,1,True,26437,True,1609322230.283,-6.125,-1.125,-9.8125,15.6875,15.375,-40.25,-0.004638671875,-0.046630859375,-0.30145263671875,-0.95233154296875,-30,-228,70,0,0,[],-114,-191,1047,5.669,-0.085,-0.037,43.8,27.946,27.946,5326,694,1000,5338.167938931298,300.0,
158,158,1,True,26437,True,1609322230.322,-3.6875,-1.75,8.9375,16.0625,18.0,-39.5,-0.00433349609375,-0.04681396484375,-0.30340576171875,-0.95172119140625,-102,-281,23,0,0,[],-187,-246,1000,5.666,-0.086,-0.036,37.1,27.982,27.982,5310,638,1000,5347.328244274809,300.0,
159,159,1,True,26437,True,1609322230.355,-0.625,3.0,-11.3125,15.6875,16.75,-39.0625,-0.0045166015625,-0.04718017578125,-0.3023681640625,-0.9520263671875,-70,205,-87,0,0,[],-156,242,889,5.668,-0.086,-0.037,38.8,28.044,28.045,5378,663,1000,5356.488549618321,300.0,
160,160,1,True,26437,True,1609322230.39,-2.6875,1.125,-8.125,15.6875,16.75,-39.0625,-0.004638671875,-0.04718017578125,-0.30072021484375,-0.9527587890625,11,88,5,0,0,[],-92,-393,1079,5.672,-0.087,-0.036,36.6,28.061,28.061,5362,665,1000,5365.648854961833,300.0,
161,161,1,True,26437,True,1609322230.424,1.0625,-0.5625,-0.125,15.0,18.0,-42.375,-0.00494384765625,-0.0474853515625,-0.30084228515625,-0.95245361328125,14,75,-112,0,0,[],-71,112,864,5.671,-0.087,-0.037,44.4,28.031,28.031,5409,663,1000,5374.809160305344,300.0,
162,162,1,True,26437,True,1609322230.462,15.9375,5.25,-4.3125,15.375,16.5,-42.0,-0.00457763671875,-0.0477294921875,-0.3016357421875,-0.95220947265625,-172,259,56,0,0,[],-259,296,1033,5.669,-0.087,-0.037,39.1,28.038,28.038,5327,629,1000,5383.969465648855,300.0,
163,163,1,True,26437,True,1609322230.497,-1.8125,-0.0625,1.125,15.375,16.5,-42.0,-0.0040283203125,-0.0474853515625,-0.30267333984375,-0.951904296875,-172,-60,-108,0,0,[],-258,-25,867,5.667,-0.087,-0.036,34.1,28.127,28.127,5330,597,1000,5393.129770992367,300.0,
164,164,1,True,26437,True,1609322230.528,5.375,3.1875,7.4375,15.6875,15.75,-42.375,-0.00457763671875,-0.047607421875,-0.304443359375,-0.95135498046875,19,-66,-78,0,0,[],-66,-29,897,5.664,-0.087,-0.037,36.9,28.21,28.21,5331,599,1000,5402.290076335878,300.0,
165,165,1,True,26437,True,1609322230.562,0.75,1.5625,4.0625,15.6875,14.6875,-42.75,-0.004150390625,-0.04736328125,-0.30560302734375,-0.95098876953125,25,104,17,0,0,[],-60,140,993,5.66,-0.087,-0.036,35.2,28.259,28.26,5367,592,1000,5411.450381679389,300.0,
166,166,1,True,26437,True,1609322230.595,2.5625,0.75,3.875,15.6875,14.6875,-42.75,-0.00408935546875,-0.04736328125,-0.306396484375,-0.95074462890625,14,55,31,0,0,[],-71,91,1007,5.659,-0.087,-0.036,43.9,28.24,28.24,5351,596,1000,5420.6106870229,300.0,
167,167,1,True,26437,True,1609322230.632,-1.9375,-1.5625,7.5625,15.6875,15.75,-42.375,-0.00390625,-0.0472412109375,-0.30841064453125,-0.9500732421875,-117,-30,-21,0,0,[],-203,4,954,5.655,-0.087,-0.036,40.6,28.188,28.188,5351,595,1000,5429.770992366412,300.0,
168,168,1,True,26437,True,1609322230.668,6.5625,5.5625,3.0625,15.6875,15.0,-44.0,-0.0032958984375,-0.0472412109375,-0.30902099609375,-0.94989013671875,-55,126,-175,0,0,[],-141,161,800,5.654,-0.087,-0.035,35.8,28.253,28.253,5313,579,1000,5438.931297709923,300.0,
169,169,1,True,26437,True,1609322230.701,-5.875,-4.5,3.3125,15.375,14.25,-42.6875,-0.00384521484375,-0.04705810546875,-0.3092041015625,-0.9498291015625,3,-143,-7,0,0,[],-238,292,912,5.653,-0.086,-0.036,41.9,28.245,28.245,5319,576,1000,5448.091603053434,300.0,
170,170,1,True,26437,True,1609322230.739,3.6875,1.375,1.875,15.375,14.25,-42.6875,-0.00445556640625,-0.0474853515625,-0.3089599609375,-0.94989013671875,-99,54,-231,0,0,[],-184,91,744,5.654,-0.087,-0.037,37.2,28.224,28.224,5326,544,1000,5457.251908396946,300.0,
171,171,1,True,26437,True,1609322230.774,8.1875,-1.625,-3.0,14.25,13.1875,-43.5625,-0.005126953125,-0.04742431640625,-0.307861328125,-0.95025634765625,141,137,1,0,0,[],56,175,978,5.656,-0.086,-0.038,36.7,28.282,28.282,5321,620,1000,5466.412213740458,300.0,
172,172,1,True,26437,True,1609322230.807,-8.0,-0.625,0.0,14.25,13.1875,-43.5625,-0.0042724609375,-0.0469970703125,-0.30755615234375,-0.95037841796875,223,-6,150,0,0,[],-210,-87,801,5.657,-0.086,-0.037,36.9,28.327,28.327,5324,637,1000,5475.572519083969,300.0,
173,173,1,True,26437,True,1609322230.841,1.4375,2.125,5.25,14.25,13.1875,-44.0,-0.00494384765625,-0.04736328125,-0.308837890625,-0.949951171875,42,91,84,0,0,[],-299,186,929,5.654,-0.086,-0.038,37.6,28.356,28.356,5303,578,1000,5484.73282442748,300.0,
174,174,1,True,26437,True,1609322230.875,3.3125,-1.0,2.4375,14.5625,12.375,-43.875,-0.00433349609375,-0.04681396484375,-0.30902099609375,-0.94989013671875,30,0,18,0,0,[],-54,36,994,5.654,-0.086,-0.037,43.5,28.278,28.277,5376,615,1000,5493.893129770991,300.0,
175,175,1,True,26437,True,1609322230.913,-2.5,-6.3125,3.0,13.5,12.0,-43.5625,-0.00439453125,-0.0469970703125,-0.3094482421875,-0.94970703125,85,28,117,0,0,[],-12,16,1132,5.653,-0.086,-0.037,39.6,28.283,28.283,5334,585,1000,5503.053435114504,300.0,
176,176,1,True,26437,True,1609322230.948,4.25,2.75,1.5,13.5,12.0,-43.5625,-0.0040283203125,-0.04656982421875,-0.3106689453125,-0.9493408203125,-3,-147,170,0,0,[],-88,-111,1147,5.651,-0.085,-0.036,40.7,28.296,28.296,5371,636,1000,5512.213740458015,300.0,
177,177,1,True,26437,True,1609322230.983,2.6875,4.0625,-3.75,13.0625,12.0,-43.5625,-0.00445556640625,-0.04693603515625,-0.3104248046875,-0.94940185546875,-32,-36,121,0,0,[],-120,146,889,5.651,-0.086,-0.037,38.4,28.306,28.306,5372,594,1000,5521.374045801526,300.0,
178,178,1,True,26437,True,1609322231.018,2.1875,-2.5,2.6875,12.375,11.0625,-44.375,-0.00457763671875,-0.046875,-0.310791015625,-0.9493408203125,189,-58,120,0,0,[],104,-21,1096,5.649,-0.086,-0.037,38.3,28.314,28.314,5409,652,1000,5530.534351145038,300.0,
179,179,1,True,26437,True,1609322231.053,2.8125,1.8125,0.1875,12.375,11.0625,-44.375,-0.0047607421875,-0.04736328125,-0.31036376953125,-0.94940185546875,-52,19,-27,0,0,[],-137,57,948,5.651,-0.086,-0.038,38.9,28.402,28.402,5405,641,1000,5539.69465648855,300.0,
180,180,1,True,26437,True,1609322231.087,-2.375,3.5,-5.0,11.5625,10.6875,-42.25,-0.00537109375,-0.04779052734375,-0.3074951171875,-0.9503173828125,-154,-12,116,0,0,[],176,244,1182,5.657,-0.087,-0.039,37.8,28.36,28.36,5417,665,1000,5548.854961832061,300.0,
181,181,1,True,26437,True,1609322231.122,1.125,0.875,-28.25,11.5625,10.6875,-41.875,-0.00482177734375,-0.0479736328125,-0.30108642578125,-0.952392578125,-2,-181,1,0,0,[],-225,-32,1002,5.67,-0.088,-0.038,37.1,28.406,28.406,5429,629,1000,5558.015267175572,300.0,
182,182,1,True,26437,True,1609322231.156,3.1875,0.3125,-20.25,11.5625,10.6875,-41.875,-0.00469970703125,-0.04827880859375,-0.2984619140625,-0.95318603515625,183,-173,248,0,0,[],96,-136,1224,5.676,-0.088,-0.037,44.2,28.311,28.311,5390,636,1000,5567.175572519083,300.0,
183,183,1,True,26437,True,1609322231.194,-17.0625,3.375,-18.875,11.0,9.5625,-41.875,-0.0035400390625,-0.04840087890625,-0.295654296875,-0.95404052734375,179,-556,369,0,0,[],-230,110,962,5.681,-0.089,-0.035,47.5,28.137,28.137,5399,603,1000,5576.335877862596,300.0,
184,184,1,True,26437,True,1609322231.236,4.375,1.5625,-11.6875,10.5625,10.6875,-43.5625,-0.0076904296875,-0.0528564453125,-0.29510498046875,-0.9539794921875,14,-104,-33,0,0,[],-133,60,1003,5.682,-0.096,-0.046,36.0,28.232,28.232,5419,641,1000,5585.496183206107,300.0,
185,185,1,True,26437,True,1609322231.269,-2.6875,0.1875,-14.375,9.75,9.875,-41.5,-0.00677490234375,-0.0528564453125,-0.29364013671875,-0.95440673828125,-307,70,14,0,0,[],-402,113,989,5.685,-0.096,-0.044,35.0,28.275,28.275,5441,674,1000,5594.656488549618,300.0,
186,186,1,True,26437,True,1609322231.301,-0.9375,-6.0,1.4375,9.75,9.875,-41.5,-0.00726318359375,-0.0517578125,-0.29461669921875,-0.95416259765625,39,70,31,0,0,[],-53,114,1006,5.683,-0.094,-0.044,51.6,28.042,28.041,5412,589,1000,5603.816793893129,300.0,
187,187,1,True,26437,True,1609322231.346,-42.0,20.8125,-4.5,10.5625,10.25,-39.75,-0.00286865234375,-0.05181884765625,-0.2919921875,-0.95501708984375,-383,-621,-75,0,0,[],95,-136,1060,5.69,-0.097,-0.035,38.8,28.021,28.021,5426,619,1000,5612.97709923664,300.0,
188,188,1,True,26437,True,1609322231.381,25.625,-17.125,6.5625,10.5625,10.25,-40.1875,-0.00775146484375,-0.050537109375,-0.2960205078125,-0.95379638671875,-86,469,-154,0,0,[],-176,513,1072,5.681,-0.092,-0.045,38.4,28.104,28.104,5475,654,1000,5622.137404580153,300.0,
189,189,1,True,26437,True,1609322231.416,-3.0,3.5,10.0,11.0,10.25,-40.5625,-0.0045166015625,-0.05108642578125,-0.29559326171875,-0.95391845703125,-97,153,-92,0,0,[],-190,191,883,5.682,-0.095,-0.038,36.7,28.129,28.129,5467,597,1000,5631.297709923664,300.0,
190,190,1,True,26437,True,1609322231.449,-1.625,19.25,25.125,11.0,10.25,-40.5625,-0.001953125,-0.05389404296875,-0.3017578125,-0.95184326171875,-526,-189,-119,0,0,[],-626,-153,855,5.669,-0.101,-0.036,37.4,28.163,28.163,5501,604,1000,5640.458015267175,300.0,
191,191,1,True,26437,True,1609322231.484,-23.875,-12.625,7.625,10.1875,11.0625,-40.1875,0.0006103515625,-0.05120849609375,-0.30859375,-0.9498291015625,-65,-190,25,0,0,[],-98,135,946,5.655,-0.097,-0.031,37.7,28.177,28.177,5498,651,1000,5649.618320610686,300.0,
192,192,1,True,26437,True,1609322231.518,1.125,-6.75,-5.75,9.5,11.0625,-41.0625,0.0013427734375,-0.04974365234375,-0.306640625,-0.95050048828125,176,-34,-14,0,0,[],83,-7,960,5.658,-0.095,-0.027,38.8,28.224,28.224,5474,616,1000,5658.778625954198,300.0,
193,193,1,True,26437,True,1609322231.554,-13.8125,-11.75,23.875,9.5,11.0625,-41.0625,-0.00238037109375,-0.05169677734375,-0.3087158203125,-0.94976806640625,76,173,-104,0,0,[],-18,209,870,5.654,-0.096,-0.036,45.4,28.102,28.102,5518,607,1000,5667.93893129771,300.0,
194,194,1,True,26437,True,1609322231.593,19.125,4.875,-7.8125,9.75,11.0625,-40.1875,-0.0040283203125,-0.05194091796875,-0.3038330078125,-0.9512939453125,-86,100,-224,0,0,[],-150,351,1084,5.665,-0.096,-0.039,47.8,28.02,28.02,5575,684,1000,5677.099236641221,300.0,
195,195,1,True,26437,True,1609322231.631,0.875,-4.625,12.9375,8.25,11.0625,-38.5625,-0.00146484375,-0.0482177734375,-0.308349609375,-0.9500732421875,213,199,600,0,0,[],124,231,808,5.655,-0.091,-0.032,35.0,28.118,28.118,5561,682,1000,5686.259541984732,300.0,
196,196,1,True,26437,True,1609322231.663,-20.875,-11.6875,-3.375,8.0,12.1875,-39.375,-0.0037841796875,-0.0501708984375,-0.30682373046875,-0.950439453125,-66,-176,497,0,0,[],-157,-139,1473,5.658,-0.093,-0.038,33.5,28.207,28.207,5583,662,1000,5695.419847328245,300.0,
197,197,1,True,26437,True,1609322231.695,16.9375,3.1875,7.6875,8.0,12.1875,-39.375,-0.006103515625,-0.05126953125,-0.3067626953125,-0.95037841796875,-98,181,-143,0,0,[],-157,402,737,5.658,-0.094,-0.043,36.5,28.305,28.305,5592,672,1000,5704.580152671756,300.0,
198,198,1,True,26437,True,1609322231.729,7.4375,2.5,-0.1875,6.875,12.0625,-39.75,-0.00274658203125,-0.04827880859375,-0.31048583984375,-0.9493408203125,-31,-50,84,0,0,[],-199,-243,941,5.651,-0.089,-0.035,39.8,28.341,28.341,5560,662,1000,5713.740458015267,300.0,
199,199,1,True,26437,True,1609322231.762,-10.9375,-3.75,-3.625,8.0,11.0625,-39.0,-0.00518798828125,-0.05010986328125,-0.30450439453125,-0.951171875,101,-201,242,0,0,[],11,-162,1218,5.663,-0.092,-0.04,45.0,28.242,28.242,5584,670,1000,5722.900763358778,300.0,
200,200,1,True,26437,True,1609322231.801,12.0625,3.625,8.375,8.0,11.0625,-39.0,-0.0050048828125,-0.049560546875,-0.304443359375,-0.95123291015625,-22,111,-198,0,0,[],-111,149,777,5.664,-0.091,-0.039,40.5,28.194,28.194,5611,639,1000,5732.06106870229,300.0,
201,201,1,True,26437,True,1609322231.837,-8.6875,-4.3125,-3.375,8.0,12.875,-39.5,-0.0045166015625,-0.04840087890625,-0.2991943359375,-0.95294189453125,-112,360,-102,0,0,[],429,154,1388,5.675,-0.089,-0.037,37.3,28.253,28.254,5581,590,1000,5741.221374045802,300.0,
202,202,1,True,26437,True,1609322231.871,-16.5,-1.5625,-13.3125,7.5625,12.875,-39.5,-0.00506591796875,-0.04913330078125,-0.2916259765625,-0.95526123046875,271,-490,224,0,0,[],-49,-335,743,5.69,-0.091,-0.038,37.2,28.296,28.296,5640,665,1000,5750.381679389313,300.0,
203,203,1,True,26437,True,1609322231.905,18.875,8.375,-6.6875,7.5625,12.875,-39.5,-0.00634765625,-0.0494384765625,-0.28985595703125,-0.95574951171875,-353,-2,-143,0,0,[],-442,37,832,5.694,-0.091,-0.04,42.4,28.245,28.245,5619,623,1000,5759.541984732824,300.0,
204,204,1,True,26437,True,1609322231.942,-3.75,-0.8125,17.875,7.25,12.875,-39.5,-0.00628662109375,-0.048828125,-0.2857666015625,-0.95703125,-95,205,-533,0,0,[],-183,244,442,5.703,-0.089,-0.039,36.8,28.289,28.289,5633,643,1000,5768.702290076336,300.0,
205,205,1,True,26437,True,1609322231.976,-1.8125,-3.4375,-7.375,7.25,13.5625,-39.5,-0.005615234375,-0.04779052734375,-0.27606201171875,-0.95989990234375,-5,47,-324,0,0,[],75,72,608,5.722,-0.088,-0.037,46.1,28.157,28.156,5622,589,1000,5777.862595419847,300.0,
206,206,1,True,26437,True,1609322232.015,-11.25,-7.9375,-4.25,6.5,12.875,-39.0625,-0.00653076171875,-0.0474853515625,-0.26678466796875,-0.96258544921875,107,-2,-260,0,0,[],21,34,715,5.742,-0.087,-0.037,44.7,28.085,28.085,5611,543,1000,5787.022900763359,300.0,
207,207,1,True,26437,True,1609322232.054,-19.625,-3.875,0.875,6.5,12.875,-39.0625,-0.00537109375,-0.04730224609375,-0.2686767578125,-0.9620361328125,-5,-541,-62,0,0,[],-91,-506,913,5.738,-0.087,-0.035,44.0,28.019,28.019,5647,599,1000,5796.18320610687,300.0,
208,208,1,True,26437,True,1609322232.094,-7.375,1.3125,-1.125,7.5625,13.25,-39.5,-0.00494384765625,-0.04815673828125,-0.2633056640625,-0.9635009765625,22,-105,-144,0,0,[],-368,-79,1180,5.749,-0.089,-0.035,44.2,27.91,27.91,5635,544,1000,5805.343511450382,300.0,
209,209,1,True,26437,True,1609322232.132,-0.875,1.75,-13.3125,6.5,14.0,-37.75,-0.0062255859375,-0.04791259765625,-0.25421142578125,-0.9659423828125,125,-41,15,0,0,[],-75,81,1066,5.768,-0.089,-0.036,44.0,27.776,27.776,5670,599,1000,5814.503816793893,300.0,
210,210,1,True,26437,True,1609322232.171,1.9375,1.625,0.5625,6.5,14.0,-39.0625,-0.00628662109375,-0.0478515625,-0.24810791015625,-0.967529296875,84,118,-97,0,0,[],-33,-81,749,5.78,-0.089,-0.036,35.0,27.88,27.881,5690,532,1000,5823.664122137404,300.0,
211,211,1,True,26437,True,1609322232.204,-0.625,-0.75,3.1875,6.5,14.0,-39.0625,-0.00628662109375,-0.04803466796875,-0.24871826171875,-0.96734619140625,-68,-56,15,0,0,[],-156,-21,991,5.779,-0.089,-0.036,56.0,27.734,27.734,5696,613,1000,5832.824427480916,300.0,
212,212,1,True,26437,True,1609322232.251,-2.6875,-1.3125,-7.375,5.75,13.25,-38.6875,-0.00689697265625,-0.0482177734375,-0.2425537109375,-0.96893310546875,52,0,37,0,0,[],-35,36,1013,5.792,-0.089,-0.036,34.0,27.685,27.686,5664,556,1000,5841.984732824428,300.0,
213,213,1,True,26437,True,1609322232.282,7.375,2.75,-0.25,7.375,14.0,-39.0625,-0.007568359375,-0.0482177734375,-0.2381591796875,-0.97003173828125,32,173,-52,0,0,[],-268,0,700,5.801,-0.091,-0.038,37.7,27.758,27.758,5688,534,1000,5851.145038167939,300.0,
214,214,1,True,26437,True,1609322232.317,-2.5625,0.125,2.3125,6.1875,14.6875,-40.6875,-0.00860595703125,-0.048583984375,-0.231689453125,-0.9715576171875,-57,7,-67,0,0,[],-146,45,908,5.814,-0.089,-0.039,35.2,27.833,27.834,5740,574,1000,5860.305343511451,300.0,
215,215,1,True,26437,True,1609322232.349,1.125,3.875,-0.1875,6.1875,14.6875,-40.6875,-0.0084228515625,-0.04864501953125,-0.23193359375,-0.97149658203125,-70,-83,-206,0,0,[],-159,-45,769,5.814,-0.091,-0.038,45.5,27.797,27.797,5760,581,1000,5869.465648854962,300.0,
216,216,1,True,26437,True,1609322232.387,-1.125,2.0,-1.125,7.0,14.25,-40.25,-0.007568359375,-0.0472412109375,-0.22601318359375,-0.97296142578125,21,-390,-76,0,0,[],-32,-238,988,5.823,-0.089,-0.038,44.8,27.766,27.766,5747,569,1000,5878.625954198474,300.0,
217,217,1,True,26437,True,1609322232.427,-0.125,4.875,65.0,5.875,13.875,-39.875,-0.00848388671875,-0.04791259765625,-0.2303466796875,-0.971923828125,-153,147,-53,0,0,[],-241,184,922,5.817,-0.088,-0.038,35.5,27.779,27.779,5746,566,1000,5887.786259541985,300.0,
218,218,1,True,26437,True,1609322232.46,-28.75,-3.6875,2.875,6.1875,14.6875,-40.25,-0.0068359375,-0.04736328125,-0.222900390625,-0.97369384765625,-29,273,-292,0,0,[],-117,307,683,5.833,-0.088,-0.034,35.9,27.863,27.863,5735,520,1000,5896.946564885496,300.0,
219,219,1,True,26437,True,1609322232.493,8.125,5.125,2.3125,6.1875,14.6875,-40.25,-0.0067138671875,-0.04693603515625,-0.22357177734375,-0.9735107421875,-181,69,-148,0,0,[],360,-216,1521,5.832,-0.086,-0.031,35.7,27.925,27.925,5733,525,1000,5906.106870229008,300.0,
220,220,1,True,26437,True,1609322232.526,14.25,8.25,15.75,5.5,14.6875,-40.25,-0.009033203125,-0.04876708984375,-0.2177734375,-0.9747314453125,-10,403,-147,0,0,[],-100,441,828,5.842,-0.091,-0.038,46.7,27.838,27.838,5730,540,1000,5915.26717557252,300.0,
221,221,1,True,26437,True,1609322232.565,13.1875,0.4375,8.625,5.5,14.25,-39.875,-0.00653076171875,-0.046142578125,-0.2142333984375,-0.97564697265625,66,-140,147,0,0,[],2,133,978,5.85,-0.087,-0.032,41.9,27.841,27.842,5771,511,1000,5924.427480916031,300.0,
222,222,1,True,26437,True,1609322232.604,-16.0,-9.875,-17.0625,5.5,14.25,-39.875,-0.00665283203125,-0.0462646484375,-0.21124267578125,-0.976318359375,140,-199,234,0,0,[],54,-167,1211,5.857,-0.087,-0.032,43.9,27.74,27.74,5779,588,1000,5933.587786259542,300.0,
223,223,1,True,26437,True,1609322232.641,-9.9375,-8.1875,-5.125,5.875,13.5,-40.25,-0.0072021484375,-0.0462646484375,-0.20208740234375,-0.978271484375,246,-151,139,0,0,[],160,-119,1115,5.875,-0.087,-0.033,35.8,27.801,27.801,5793,602,1000,5942.748091603053,300.0,
224,224,1,True,26437,True,1609322232.674,5.8125,-1.8125,-6.25,5.875,14.6875,-40.25,-0.009033203125,-0.04669189453125,-0.197265625,-0.97918701171875,-65,130,-107,0,0,[],-152,165,868,5.885,-0.087,-0.036,35.3,27.919,27.919,5781,553,1000,5951.908396946566,300.0,
225,225,1,True,26437,True,1609322232.707,-8.5,0.125,-8.5,5.0625,14.6875,-39.875,-0.0067138671875,-0.0455322265625,-0.19415283203125,-0.97991943359375,47,137,-258,0,0,[],160,-311,1227,5.906,-0.086,-0.031,35.2,27.98,27.98,5797,531,1000,5961.068702290077,300.0,
226,226,1,True,26437,True,1609322232.739,6.0625,1.25,-9.8125,5.0625,14.6875,-39.875,-0.00762939453125,-0.04620361328125,-0.1866455078125,-0.9814453125,-74,-12,-117,0,0,[],-90,226,1206,5.908,-0.087,-0.032,35.4,28.086,28.087,5838,634,1000,5970.229007633588,300.0,
227,227,1,True,26437,True,1609322232.772,2.3125,-0.0625,-5.8125,5.5,14.25,-39.5,-0.00762939453125,-0.04620361328125,-0.17779541015625,-0.98297119140625,125,114,-78,0,0,[],38,145,897,5.924,-0.087,-0.031,34.7,28.18,28.18,5861,635,1000,5979.389312977099,300.0,
228,228,1,True,26437,True,1609322232.804,0.125,-0.375,-22.0625,5.5,14.25,-39.5,-0.008056640625,-0.0465087890625,-0.17315673828125,-0.9837646484375,27,-54,-93,0,0,[],-59,-22,882,5.934,-0.088,-0.032,36.1,28.256,28.256,5867,617,1000,5988.54961832061,300.0,
